{"66":{"lat":43.762955,"lng":142.359726,"lvl":8,"addr":"北海道旭川市宮下通9丁目2番17号"},"80":{"lat":41.800835,"lng":140.733536,"lvl":8,"addr":"北海道函館市港町1丁目1-2"},"123":{"lat":41.779335,"lng":140.782623,"lvl":8,"addr":"北海道函館市湯川町1丁目24番16号"},"148":{"lat":43.788765,"lng":142.360519,"lvl":7,"addr":"北海道旭川市大町3条5丁目2397-18"},"1162":{"lat":43.731159,"lng":142.381912,"lvl":7,"addr":"北海道旭川市緑が丘2条4丁目12番地3"},"3870":{"lat":43.767059,"lng":142.36615,"lvl":7,"addr":"北海道旭川市4条通11丁目2230-2"},"5351":{"lat":43.76952,"lng":142.349777,"lvl":6,"addr":"北海道旭川市2条通1丁目左1号"},"9006":{"lat":45.399014,"lng":141.684006,"lvl":8,"addr":"北海道稚内市大黒2丁目3番3号"},"9111":{"lat":43.765575,"lng":142.37233,"lvl":6,"addr":"北海道旭川市4条通15丁目1693番地3"},"9235":{"lat":43.78994,"lng":142.339859,"lvl":7,"addr":"北海道旭川市北門町14丁目2144-129"},"9236":{"lat":43.774593,"lng":142.320938,"lvl":8,"addr":"北海道旭川市忠和4条6丁目4番12号"},"9237":{"lat":43.789433,"lng":142.338165,"lvl":7,"addr":"北海道旭川市錦町15丁目2903番2"},"9241":{"lat":43.768414,"lng":142.349152,"lvl":6,"addr":"北海道旭川市1条通1丁目3番232"},"9242":{"lat":43.812344,"lng":142.398529,"lvl":8,"addr":"北海道旭川市末広1条10丁目1番20号"},"9243":{"lat":43.812344,"lng":142.398529,"lvl":8,"addr":"北海道旭川市末広1条10丁目1番20号"},"9244":{"lat":45.394798,"lng":141.697418,"lvl":6,"addr":"北海道稚内市潮見1丁目27号"},"9246":{"lat":43.771461,"lng":142.350967,"lvl":7,"addr":"北海道旭川市4条通1丁目2241番の6"},"9247":{"lat":43.749763,"lng":142.340866,"lvl":8,"addr":"北海道旭川市神居3条18丁目2番5号"},"9249":{"lat":43.770672,"lng":142.404236,"lvl":8,"addr":"北海道旭川市豊岡12条4丁目5番6"},"9253":{"lat":41.804314,"lng":140.729538,"lvl":8,"addr":"北海道函館市港町1丁目11-16"},"9917":{"lat":43.771648,"lng":142.361267,"lvl":7,"addr":"北海道旭川市6条通7丁目31-1アクアビル1F"},"9918":{"lat":43.729069,"lng":142.38031,"lvl":8,"addr":"北海道旭川市緑が丘東3条1丁目3番3号"},"9919":{"lat":43.765175,"lng":142.331818,"lvl":8,"addr":"北海道旭川市神居3条5丁目1-2"},"9920":{"lat":43.819035,"lng":143.907898,"lvl":7,"addr":"北海道北見市公園町139-10"},"9921":{"lat":44.363155,"lng":143.347717,"lvl":8,"addr":"北海道紋別市落石町1丁目3番88号"},"9922":{"lat":43.760719,"lng":142.334442,"lvl":8,"addr":"北海道旭川市神居3条9丁目1-3"},"9923":{"lat":43.787148,"lng":142.409515,"lvl":8,"addr":"北海道旭川市永山7条5丁目1番15号"},"9924":{"lat":43.796127,"lng":142.348633,"lvl":7,"addr":"北海道旭川市大町2条14丁目92-26"},"9925":{"lat":43.746098,"lng":142.398499,"lvl":8,"addr":"北海道旭川市東光10条4丁目1番18号"},"9926":{"lat":43.758366,"lng":142.334335,"lvl":8,"addr":"北海道旭川市神居3条11丁目2-21"},"9927":{"lat":45.382751,"lng":141.694458,"lvl":7,"addr":"北海道稚内市新光町1483番82"},"9928":{"lat":43.797543,"lng":143.86235,"lvl":7,"addr":"北海道北見市東三輪3-21-1"},"9929":{"lat":43.759056,"lng":142.382812,"lvl":7,"addr":"北海道旭川市1条通23丁目111番地の24"},"9930":{"lat":43.786057,"lng":142.406693,"lvl":8,"addr":"北海道旭川市永山7条4丁目2番4号"},"9931":{"lat":43.796909,"lng":142.412384,"lvl":8,"addr":"北海道旭川市永山3条8丁目2-6"},"9933":{"lat":43.75489,"lng":142.352417,"lvl":8,"addr":"北海道旭川市神楽5条9丁目2番27号"},"10163":{"lat":45.386494,"lng":141.69928,"lvl":8,"addr":"北海道稚内市栄5丁目8番11号"},"10219":{"lat":44.343834,"lng":143.346069,"lvl":8,"addr":"北海道紋別市緑町5丁目6番17号"},"147":{"lat":40.596382,"lng":140.498718,"lvl":7,"addr":"青森県弘前市外崎3-5-1"},"154":{"lat":40.648052,"lng":140.593491,"lvl":5,"addr":"青森県黒石市一番町189番地"},"156":{"lat":40.60099,"lng":140.479492,"lvl":7,"addr":"青森県弘前市駅前2丁目6-2"},"160":{"lat":40.583382,"lng":140.477417,"lvl":7,"addr":"青森県弘前市豊原1-3-4"},"165":{"lat":40.840698,"lng":140.716141,"lvl":8,"addr":"青森県青森市新田2丁目2番16号"},"171":{"lat":40.507893,"lng":141.51181,"lvl":8,"addr":"青森県八戸市諏訪3丁目3-20"},"176":{"lat":40.494705,"lng":141.514175,"lvl":8,"addr":"青森県八戸市田向3-2-19"},"177":{"lat":40.612934,"lng":141.20079,"lvl":8,"addr":"青森県十和田市西十二番町15-26"},"180":{"lat":40.646328,"lng":140.602615,"lvl":7,"addr":"青森県黒石市錦町8-6"},"184":{"lat":41.296665,"lng":141.204285,"lvl":6,"addr":"青森県むつ市小川町一丁目104番地1"},"186":{"lat":40.523563,"lng":141.502548,"lvl":8,"addr":"青森県八戸市江陽2-13-40"},"227":{"lat":41.293491,"lng":141.206894,"lvl":8,"addr":"青森県むつ市小川町1丁目9番31号"},"259":{"lat":40.519512,"lng":141.51297,"lvl":8,"addr":"青森県八戸市小中野4-5-18"},"276":{"lat":40.808361,"lng":140.734787,"lvl":8,"addr":"青森県青森市金沢3丁目12-21"},"407":{"lat":40.507938,"lng":141.542099,"lvl":8,"addr":"青森県八戸市湊高台4丁目18-13"},"442":{"lat":40.490349,"lng":141.510849,"lvl":8,"addr":"青森県八戸市田向5-22-17"},"452":{"lat":40.651875,"lng":141.37265,"lvl":6,"addr":"青森県上北郡おいらせ町青葉5-50-1486"},"528":{"lat":40.615746,"lng":141.211182,"lvl":8,"addr":"青森県十和田市稲生町13-39"},"565":{"lat":40.51099,"lng":141.47374,"lvl":8,"addr":"青森県八戸市売市2丁目13番15号"},"569":{"lat":40.584949,"lng":140.49968,"lvl":7,"addr":"青森県弘前市大字扇町3丁目1-2"},"608":{"lat":40.488838,"lng":141.50914,"lvl":8,"addr":"青森県八戸市田向5丁目29-1"},"639":{"lat":40.449417,"lng":141.322647,"lvl":5,"addr":"青森県三戸郡南部町剣吉字堰合15-4"},"678":{"lat":40.494072,"lng":141.511322,"lvl":8,"addr":"青森県八戸市田向二丁目12番8号"},"1148":{"lat":40.506622,"lng":141.508041,"lvl":6,"addr":"青森県八戸市類家4-41-5"},"1174":{"lat":40.621643,"lng":141.200607,"lvl":8,"addr":"青森県十和田市元町西4丁目3-30"},"1244":{"lat":40.509888,"lng":141.512329,"lvl":8,"addr":"青森県八戸市青葉3-31-1"},"1423":{"lat":41.285873,"lng":141.179825,"lvl":8,"addr":"青森県むつ市旭町2-30"},"1527":{"lat":40.607777,"lng":140.482803,"lvl":7,"addr":"青森県弘前市和徳町165"},"1540":{"lat":40.808102,"lng":140.440002,"lvl":3,"addr":"青森県五戸町沢向17-42"},"1543":{"lat":40.787903,"lng":140.466766,"lvl":7,"addr":"青森県五所川原市稲実字米崎119-11"},"1606":{"lat":40.772873,"lng":140.438675,"lvl":6,"addr":"青森県北津軽郡鶴田町大字鶴田字相原55-25"},"1615":{"lat":41.268681,"lng":140.982651,"lvl":5,"addr":"青森県むつ市川内町休所42-267"},"1626":{"lat":40.64753,"lng":141.377304,"lvl":5,"addr":"青森県上北郡おいらせ町上久保63-173"},"1627":{"lat":40.923073,"lng":140.95224,"lvl":7,"addr":"青森県東津軽郡平内町小湊愛宕82-1"},"1633":{"lat":40.815411,"lng":140.388626,"lvl":5,"addr":"青森県つがる市木造字浮巣51-1"},"1637":{"lat":40.600422,"lng":140.493744,"lvl":7,"addr":"青森県弘前市城東中央三丁目3-1"},"1638":{"lat":40.829422,"lng":140.692596,"lvl":7,"addr":"青森県青森市石江3丁目2番地4"},"1658":{"lat":40.526917,"lng":141.469559,"lvl":8,"addr":"青森県八戸市下長1-6-29"},"1674":{"lat":40.617916,"lng":140.483582,"lvl":7,"addr":"青森県弘前市青山1丁目11-2"},"1685":{"lat":40.801014,"lng":140.728195,"lvl":7,"addr":"青森県青森市西大野3丁目13番地8"},"1692":{"lat":40.815651,"lng":140.763107,"lvl":8,"addr":"青森県青森市奥野2丁目20-2"},"1698":{"lat":40.827572,"lng":140.680252,"lvl":7,"addr":"青森県青森市新城平岡258-258"},"1704":{"lat":40.991295,"lng":140.35199,"lvl":5,"addr":"青森県つがる市富萢町山里1-1"},"1717":{"lat":40.616207,"lng":140.580444,"lvl":7,"addr":"青森県平川市尾上栄松48-1"},"1718":{"lat":40.82708,"lng":140.798096,"lvl":8,"addr":"青森県青森市東造道3丁目15番1号"},"1725":{"lat":40.679329,"lng":141.362991,"lvl":8,"addr":"青森県三沢市中央町4丁目5-16"},"1728":{"lat":40.53796,"lng":141.472931,"lvl":8,"addr":"青森県八戸市下長3丁目13-8"},"1758":{"lat":40.602558,"lng":140.508698,"lvl":7,"addr":"青森県弘前市田園3丁目5-12"},"1763":{"lat":40.498116,"lng":141.540054,"lvl":7,"addr":"青森県八戸市新井田字小久保尻16-127"},"1768":{"lat":40.603939,"lng":141.194443,"lvl":8,"addr":"青森県十和田市西23番町60-19"},"1785":{"lat":40.81208,"lng":140.439072,"lvl":7,"addr":"青森県五所川原市字錦町1番地91"},"1798":{"lat":40.659798,"lng":140.499207,"lvl":7,"addr":"青森県南津軽郡藤崎町葛󠄀野新岡元109"},"1855":{"lat":40.601685,"lng":140.453339,"lvl":7,"addr":"青森県弘前市南城西二丁目5-15"},"1865":{"lat":40.787823,"lng":140.455429,"lvl":7,"addr":"青森県五所川原市姥萢字船橋245-2"},"1866":{"lat":40.830112,"lng":140.727768,"lvl":8,"addr":"青森県青森市柳川2丁目4-22"},"1880":{"lat":40.815945,"lng":140.784698,"lvl":8,"addr":"青森県青森市南佃2-8-4"},"1904":{"lat":40.520916,"lng":141.492889,"lvl":8,"addr":"青森県八戸市城下4丁目10-35"},"1909":{"lat":40.713585,"lng":140.593018,"lvl":6,"addr":"青森県青森市浪岡浪岡若松124-1"},"1925":{"lat":40.802021,"lng":140.448044,"lvl":7,"addr":"青森県五所川原市中央1丁目40番地3"},"2008":{"lat":40.817757,"lng":140.763916,"lvl":8,"addr":"青森県青森市松原三丁目13-21"},"2043":{"lat":40.816299,"lng":140.76355,"lvl":8,"addr":"青森県青森市松原3-9-24"},"2052":{"lat":41.299446,"lng":141.193817,"lvl":8,"addr":"青森県むつ市緑ヶ丘35-2"},"2188":{"lat":40.831741,"lng":140.789764,"lvl":7,"addr":"青森県青森市造道3-25-1"},"2190":{"lat":40.553658,"lng":140.542145,"lvl":7,"addr":"青森県弘前市石川字石川103-5"},"2234":{"lat":40.773796,"lng":140.222748,"lvl":7,"addr":"青森県西津軽郡鰺ヶ沢町舞戸町字下冨田57-2"},"2246":{"lat":40.855728,"lng":141.125031,"lvl":7,"addr":"青森県上北郡野辺地町鳴沢18-3"},"2298":{"lat":40.622066,"lng":141.222504,"lvl":8,"addr":"青森県十和田市東十二番町14-27"},"2378":{"lat":40.591282,"lng":140.474976,"lvl":7,"addr":"青森県弘前市富田3丁目14-1"},"2589":{"lat":41.28838,"lng":141.185745,"lvl":8,"addr":"青森県むつ市中央2丁目5-5"},"2606":{"lat":40.817165,"lng":140.726974,"lvl":8,"addr":"青森県青森市久須志3丁目18-7"},"2639":{"lat":40.592442,"lng":140.465149,"lvl":7,"addr":"青森県弘前市桔梗野1丁目2-2"},"2671":{"lat":40.987347,"lng":141.32515,"lvl":6,"addr":"青森県上北郡六ヶ所村尾駮字野附1341-2"},"2716":{"lat":40.672611,"lng":141.407974,"lvl":5,"addr":"青森県三沢市前平47-257"},"2800":{"lat":40.597198,"lng":140.479843,"lvl":7,"addr":"青森県弘前市大町三丁目10-5"},"2812":{"lat":40.501152,"lng":141.509354,"lvl":8,"addr":"青森県八戸市南類家3-2-12"},"2822":{"lat":40.82869,"lng":140.794174,"lvl":8,"addr":"青森県青森市東造道二丁目6番28号"},"2826":{"lat":40.518353,"lng":141.299942,"lvl":7,"addr":"青森県三戸郡五戸町愛宕後26-1"},"3019":{"lat":40.615353,"lng":140.42131,"lvl":7,"addr":"青森県弘前市賀田一丁目3-16"},"3059":{"lat":40.494328,"lng":141.514709,"lvl":8,"addr":"青森県八戸市田向3丁目2-15"},"3076":{"lat":40.522541,"lng":141.491348,"lvl":8,"addr":"青森県八戸市城下4丁目4-19"},"3194":{"lat":40.614197,"lng":140.424423,"lvl":7,"addr":"青森県弘前市一町田字村元712-1"},"3203":{"lat":40.540714,"lng":141.475601,"lvl":8,"addr":"青森県八戸市日計1丁目2-43"},"3411":{"lat":40.576778,"lng":140.449554,"lvl":7,"addr":"青森県弘前市大原2丁目5-26"},"3595":{"lat":40.586803,"lng":140.502609,"lvl":7,"addr":"青森県弘前市大字扇町二丁目2番地10"},"3794":{"lat":40.599697,"lng":140.474106,"lvl":7,"addr":"青森県弘前市土手町89-1"},"3797":{"lat":40.787823,"lng":140.455429,"lvl":7,"addr":"青森県五所川原市姥萢船橋242-6"},"3841":{"lat":40.818996,"lng":140.754517,"lvl":7,"addr":"青森県青森市勝田1-20-1"},"3844":{"lat":40.805531,"lng":140.754578,"lvl":7,"addr":"青森県青森市緑3丁目11-8"},"3856":{"lat":40.810246,"lng":140.737,"lvl":8,"addr":"青森県青森市金沢3丁目27番22号"},"3877":{"lat":40.781055,"lng":140.78157,"lvl":8,"addr":"青森県青森市幸畑5丁目1番3号"},"3906":{"lat":40.83086,"lng":140.814407,"lvl":7,"addr":"青森県青森市平新田字森越23-9"},"3987":{"lat":40.815678,"lng":140.783112,"lvl":8,"addr":"青森県青森市南佃二丁目7番10号"},"4091":{"lat":40.618187,"lng":140.459167,"lvl":7,"addr":"青森県弘前市浜の町西1丁目5-21"},"4532":{"lat":40.602257,"lng":141.41777,"lvl":7,"addr":"青森県上北郡おいらせ町中野平40-1"},"4649":{"lat":40.52607,"lng":141.497757,"lvl":8,"addr":"青森県八戸市沼館四丁目7番111号"},"4659":{"lat":40.493195,"lng":141.510468,"lvl":8,"addr":"青森県八戸市田向3-5-1"},"4719":{"lat":41.083508,"lng":141.2491,"lvl":5,"addr":"青森県上北郡横浜町寺下81-2"},"4768":{"lat":41.266167,"lng":141.348343,"lvl":5,"addr":"青森県下北郡東通村大字砂子又字里1番206"},"4779":{"lat":40.823204,"lng":140.740189,"lvl":8,"addr":"青森県青森市長島2丁目1-14青森クリニックビル1Ｆ"},"4796":{"lat":40.622284,"lng":140.48053,"lvl":7,"addr":"青森県弘前市青山3-8-4"},"4799":{"lat":40.607803,"lng":140.453842,"lvl":7,"addr":"青森県弘前市駒越町6-1"},"4809":{"lat":40.516678,"lng":141.543152,"lvl":7,"addr":"青森県八戸市白銀町字南ヶ丘11-12"},"4830":{"lat":40.817501,"lng":140.760788,"lvl":8,"addr":"青森県青森市松原三丁目1番14号"},"4831":{"lat":40.828884,"lng":140.794113,"lvl":8,"addr":"青森県青森市東造道2-6-40"},"4834":{"lat":40.815746,"lng":140.755524,"lvl":8,"addr":"青森県青森市勝田1丁目17番16号"},"4891":{"lat":40.503967,"lng":141.50351,"lvl":8,"addr":"青森県八戸市南類家一丁目16番7号"},"4940":{"lat":41.298428,"lng":141.184784,"lvl":8,"addr":"青森県むつ市十二林17-6"},"5130":{"lat":40.789692,"lng":140.784149,"lvl":7,"addr":"青森県青森市大字幸畑字松元98番地"},"5230":{"lat":40.834957,"lng":140.725388,"lvl":8,"addr":"青森県青森市沖館1丁目9-25"},"5239":{"lat":40.850994,"lng":140.702209,"lvl":7,"addr":"青森県青森市油川字浪返102-1"},"5324":{"lat":40.686737,"lng":141.372757,"lvl":7,"addr":"青森県三沢市緑町1-3-9"},"5542":{"lat":40.601486,"lng":140.465027,"lvl":7,"addr":"青森県弘前市本町48番1号"},"5543":{"lat":40.686886,"lng":141.378601,"lvl":7,"addr":"青森県三沢市下久保1丁目1-3"},"5544":{"lat":40.80862,"lng":140.719864,"lvl":7,"addr":"青森県青森市大字浪館字志田31-1"},"5545":{"lat":40.818024,"lng":140.745758,"lvl":8,"addr":"青森県青森市中央三丁目9番8号"},"5546":{"lat":40.512184,"lng":141.50386,"lvl":8,"addr":"青森県八戸市柏崎三丁目7番17号"},"5547":{"lat":40.508224,"lng":141.469345,"lvl":8,"addr":"青森県八戸市根城9-5-3"},"5548":{"lat":40.488407,"lng":141.467072,"lvl":8,"addr":"青森県八戸市東白山台一丁目1番38号"},"5549":{"lat":40.52047,"lng":141.307785,"lvl":7,"addr":"青森県三戸郡五戸町正場沢3-4"},"7358":{"lat":40.612843,"lng":140.49704,"lvl":7,"addr":"青森県弘前市境関字西田28-1"},"7359":{"lat":40.920578,"lng":140.55191,"lvl":5,"addr":"青森県五所川原市金木町沢部468-1金木タウンセンタ-ノア内"},"5381":{"lat":39.96468,"lng":141.079407,"lvl":5,"addr":"岩手県八幡平市平舘11-11-21"},"5382":{"lat":39.713852,"lng":141.148315,"lvl":8,"addr":"岩手県盛岡市上田1-1-35"},"5383":{"lat":39.390007,"lng":141.052536,"lvl":7,"addr":"岩手県花巻市円万寺字下中野45-11"},"5384":{"lat":38.92997,"lng":141.135254,"lvl":8,"addr":"岩手県一関市大手町7-2"},"5385":{"lat":39.285431,"lng":141.10968,"lvl":8,"addr":"岩手県北上市大通り3-11-26"},"5386":{"lat":39.378365,"lng":141.111649,"lvl":7,"addr":"岩手県花巻市不動町1-2-5"},"5387":{"lat":39.727043,"lng":141.117508,"lvl":8,"addr":"岩手県盛岡市青山3-6-2"},"5388":{"lat":39.38596,"lng":141.117477,"lvl":8,"addr":"岩手県花巻市上町6-5"},"5389":{"lat":39.139076,"lng":141.148499,"lvl":8,"addr":"岩手県奥州市水沢東大通り1-5-31"},"5390":{"lat":39.717014,"lng":141.123703,"lvl":8,"addr":"岩手県盛岡市前九年3-6-26"},"5391":{"lat":39.384197,"lng":141.116608,"lvl":7,"addr":"岩手県花巻市南川原町126-1"},"5392":{"lat":40.206051,"lng":141.301605,"lvl":7,"addr":"岩手県二戸郡一戸町一戸字砂森54-1"},"5393":{"lat":39.659012,"lng":141.162277,"lvl":7,"addr":"岩手県盛岡市三本柳5地割28-2"},"5394":{"lat":39.693993,"lng":141.121017,"lvl":7,"addr":"岩手県盛岡市本宮小板小瀬13-3"},"5395":{"lat":39.714092,"lng":141.146469,"lvl":8,"addr":"岩手県盛岡市上田一丁目3番26号"},"5396":{"lat":39.707539,"lng":141.147888,"lvl":8,"addr":"岩手県盛岡市本町通2-13-8"},"5397":{"lat":39.713905,"lng":141.110229,"lvl":8,"addr":"岩手県盛岡市大館町18-3"},"5398":{"lat":39.034367,"lng":141.618179,"lvl":7,"addr":"岩手県陸前高田市竹駒町字滝の里15-1"},"5399":{"lat":39.705578,"lng":141.13382,"lvl":8,"addr":"岩手県盛岡市盛岡駅前北通11-30"},"5400":{"lat":39.657635,"lng":141.932816,"lvl":6,"addr":"岩手県宮古市山口5-295-7"},"5401":{"lat":39.295578,"lng":141.118225,"lvl":8,"addr":"岩手県北上市さくら通り1-1-34"},"5402":{"lat":39.662804,"lng":141.166336,"lvl":7,"addr":"岩手県盛岡市三本柳6地割1-1"},"5403":{"lat":39.757351,"lng":141.161011,"lvl":8,"addr":"岩手県盛岡市西松園4-20-1"},"5404":{"lat":38.928276,"lng":141.125458,"lvl":8,"addr":"岩手県一関市末広一丁目8番18号"},"5405":{"lat":39.845982,"lng":141.794464,"lvl":7,"addr":"岩手県下閉伊郡岩泉町岩泉字中家19-1"},"5406":{"lat":39.261791,"lng":141.099731,"lvl":8,"addr":"岩手県北上市大堤南1丁目1-24"},"5407":{"lat":38.989391,"lng":141.253418,"lvl":7,"addr":"岩手県一関市東山町長坂字町388"},"5408":{"lat":39.192108,"lng":141.175781,"lvl":8,"addr":"岩手県奥州市江刺大通り5-8"},"5409":{"lat":39.661491,"lng":141.15448,"lvl":7,"addr":"岩手県盛岡市津志田中央2-17-33"},"5410":{"lat":39.677319,"lng":141.140167,"lvl":7,"addr":"岩手県盛岡市向中野5丁目21番20号"},"5411":{"lat":40.17617,"lng":141.109436,"lvl":5,"addr":"岩手県二戸市浄法寺町樋田162-1"},"5412":{"lat":39.74456,"lng":141.124756,"lvl":8,"addr":"岩手県盛岡市みたけ二丁目12番10号"},"5413":{"lat":39.56863,"lng":141.164429,"lvl":7,"addr":"岩手県紫波郡紫波町高水寺字大坊183-1"},"5414":{"lat":39.263111,"lng":141.76564,"lvl":5,"addr":"岩手県釜石市甲子町10地割159番地84"},"5415":{"lat":39.65419,"lng":141.154617,"lvl":7,"addr":"岩手県盛岡市永井22地割37-1"},"5416":{"lat":39.274422,"lng":141.883896,"lvl":8,"addr":"岩手県釜石市只越町二丁目4番17号"},"5417":{"lat":39.643394,"lng":141.946976,"lvl":8,"addr":"岩手県宮古市保久田8番5号"},"5418":{"lat":39.641994,"lng":141.951736,"lvl":8,"addr":"岩手県宮古市大通1-5-3"},"5419":{"lat":39.196373,"lng":141.171463,"lvl":8,"addr":"岩手県奥州市江刺西大通り9-5"},"5420":{"lat":39.073219,"lng":141.709717,"lvl":7,"addr":"岩手県大船渡市大船渡町字山馬越175-1"},"5421":{"lat":39.385723,"lng":141.123993,"lvl":8,"addr":"岩手県花巻市御田屋町4-16"},"5422":{"lat":40.299404,"lng":141.304718,"lvl":7,"addr":"岩手県二戸市堀野字大川原毛89-1"},"5423":{"lat":39.747742,"lng":141.092728,"lvl":7,"addr":"岩手県滝沢市高屋敷平11-40"},"5424":{"lat":39.676025,"lng":141.145538,"lvl":6,"addr":"岩手県盛岡市向中野6丁目14番17号"},"5425":{"lat":39.665318,"lng":141.151199,"lvl":8,"addr":"岩手県盛岡市津志田西2丁目2-15"},"5426":{"lat":39.738712,"lng":141.084702,"lvl":7,"addr":"岩手県滝沢市鵜飼狐洞1-303"},"5427":{"lat":39.336727,"lng":141.547302,"lvl":7,"addr":"岩手県遠野市松崎町白岩19-48-1"},"5428":{"lat":39.327148,"lng":141.102707,"lvl":6,"addr":"岩手県北上市村崎野17-170-2"},"5429":{"lat":39.019421,"lng":141.636246,"lvl":5,"addr":"岩手県陸前高田市高田町字太田512-3"},"5430":{"lat":39.30204,"lng":141.066666,"lvl":6,"addr":"岩手県北上市上江釣子7地割97-1"},"5431":{"lat":39.123283,"lng":141.13649,"lvl":7,"addr":"岩手県奥州市水沢龍ヶ馬場27-5"},"5432":{"lat":39.187656,"lng":141.171692,"lvl":8,"addr":"岩手県奥州市江刺八日町1-4-10-2"},"5433":{"lat":39.920147,"lng":141.101822,"lvl":6,"addr":"岩手県八幡平市大更第34地割392-1"},"5434":{"lat":39.711864,"lng":141.165848,"lvl":8,"addr":"岩手県盛岡市山岸1-3-11"},"5435":{"lat":39.124691,"lng":141.126511,"lvl":6,"addr":"岩手県奥州市水沢字桜屋敷291番地1"},"5436":{"lat":39.71117,"lng":141.154221,"lvl":8,"addr":"岩手県盛岡市名須川町27-42"},"5437":{"lat":39.730793,"lng":141.153244,"lvl":8,"addr":"岩手県盛岡市東緑が丘23-8"},"5438":{"lat":39.726765,"lng":141.111862,"lvl":8,"addr":"岩手県盛岡市青山2丁目24-3"},"5440":{"lat":39.399643,"lng":141.102264,"lvl":8,"addr":"岩手県花巻市桜台二丁目13番11号"},"5441":{"lat":39.710522,"lng":141.138382,"lvl":8,"addr":"岩手県盛岡市梨木町2-14"},"5442":{"lat":39.692223,"lng":141.123169,"lvl":7,"addr":"岩手県盛岡市本宮5丁目1番1号"},"5443":{"lat":39.048038,"lng":141.129852,"lvl":6,"addr":"岩手県奥州市前沢向田一丁目20-2"},"5444":{"lat":39.143085,"lng":141.140076,"lvl":7,"addr":"岩手県奥州市水沢吉小路3-3"},"5445":{"lat":39.441036,"lng":141.115295,"lvl":5,"addr":"岩手県花巻市二枚橋6-498-1"},"5446":{"lat":39.693764,"lng":140.973923,"lvl":7,"addr":"岩手県岩手郡雫石町中町33-4"},"5447":{"lat":39.69735,"lng":141.149673,"lvl":8,"addr":"岩手県盛岡市下ノ橋町6-8"},"5448":{"lat":39.657452,"lng":141.949066,"lvl":7,"addr":"岩手県宮古市崎鍬ケ崎第1地割11-33"},"5449":{"lat":39.292885,"lng":141.111893,"lvl":7,"addr":"岩手県北上市柳原町1丁目4-140"},"5450":{"lat":39.704342,"lng":141.165649,"lvl":8,"addr":"岩手県盛岡市天神町8-24"},"5451":{"lat":39.138874,"lng":141.144577,"lvl":5,"addr":"岩手県奥州市水沢中町55番地"},"5452":{"lat":39.716377,"lng":141.128418,"lvl":8,"addr":"岩手県盛岡市前九年2丁目2-38"},"5453":{"lat":39.69883,"lng":141.159821,"lvl":8,"addr":"岩手県盛岡市中ノ橋通2-2-13"},"5454":{"lat":39.64225,"lng":141.172607,"lvl":7,"addr":"岩手県盛岡市東見前8-20-4"},"5455":{"lat":39.268974,"lng":141.856354,"lvl":8,"addr":"岩手県釜石市中妻町3-6-3"},"5456":{"lat":39.071117,"lng":141.71553,"lvl":7,"addr":"岩手県大船渡市大船渡町字地ノ森44-3"},"5457":{"lat":39.297325,"lng":141.072159,"lvl":7,"addr":"岩手県北上市上江釣子17地割218-2"},"5458":{"lat":39.687767,"lng":141.125641,"lvl":7,"addr":"岩手県盛岡市本宮6-1-65"},"5459":{"lat":39.668106,"lng":141.136383,"lvl":7,"addr":"岩手県盛岡市北飯岡三丁目20番32号"},"5460":{"lat":39.390018,"lng":141.113754,"lvl":8,"addr":"岩手県花巻市大通り1-15-19"},"5461":{"lat":39.96571,"lng":141.222687,"lvl":7,"addr":"岩手県岩手郡岩手町大字江刈内第10地割49番地1"},"5462":{"lat":39.684345,"lng":141.143219,"lvl":8,"addr":"岩手県盛岡市向中野2丁目1番1号"},"5463":{"lat":39.701218,"lng":141.134308,"lvl":8,"addr":"岩手県盛岡市盛岡駅西通二丁目9-1マリオス5Ｆ内"},"5464":{"lat":40.299007,"lng":141.301376,"lvl":6,"addr":"岩手県二戸市堀野大川原毛95番地1"},"5554":{"lat":39.460197,"lng":141.938141,"lvl":5,"addr":"岩手県下閉伊郡山田町飯岡1-21-2"},"5555":{"lat":39.706253,"lng":141.155991,"lvl":8,"addr":"岩手県盛岡市本町通一丁目2番15号"},"5556":{"lat":39.711391,"lng":141.230637,"lvl":3,"addr":"岩手県盛岡市14地割149"},"5557":{"lat":39.72184,"lng":141.11113,"lvl":8,"addr":"岩手県盛岡市青山1-20-42"},"5558":{"lat":39.728176,"lng":141.109863,"lvl":8,"addr":"岩手県盛岡市西青山2-18-57"},"5559":{"lat":39.755962,"lng":141.162842,"lvl":8,"addr":"岩手県盛岡市西松園3-22-2"},"5560":{"lat":39.55439,"lng":141.16098,"lvl":6,"addr":"岩手県紫波郡紫波町日詰字中新田211-1"},"5561":{"lat":39.537586,"lng":141.165543,"lvl":7,"addr":"岩手県紫波郡紫波町北日詰字大日堂40番地1"},"5562":{"lat":39.193558,"lng":141.171539,"lvl":8,"addr":"岩手県奥州市江刺西大通り10-11"},"5563":{"lat":39.050022,"lng":141.12204,"lvl":6,"addr":"岩手県奥州市前沢字七日町48-2"},"5564":{"lat":39.287945,"lng":141.110718,"lvl":8,"addr":"岩手県北上市芳町7番20号"},"5565":{"lat":39.33947,"lng":141.540924,"lvl":6,"addr":"岩手県遠野市松崎町白岩14-41-1"},"8372":{"lat":39.734737,"lng":141.077072,"lvl":3,"addr":"岩手県滝沢市滝沢市牧野林1010-2"},"8502":{"lat":39.640541,"lng":141.947357,"lvl":8,"addr":"岩手県宮古市大通4丁目5-1"},"8551":{"lat":39.704056,"lng":141.152634,"lvl":8,"addr":"岩手県盛岡市内丸17-8"},"8611":{"lat":39.724522,"lng":141.123016,"lvl":8,"addr":"岩手県盛岡市上堂1丁目18-26"},"8612":{"lat":39.292885,"lng":141.111893,"lvl":7,"addr":"岩手県北上市柳原町1丁目4-140"},"8644":{"lat":39.672546,"lng":141.15564,"lvl":8,"addr":"岩手県盛岡市南仙北3丁目2-30"},"8694":{"lat":39.142433,"lng":141.140427,"lvl":7,"addr":"岩手県奥州市水沢吉小路46-1"},"8789":{"lat":39.052135,"lng":141.129639,"lvl":7,"addr":"岩手県奥州市前沢字向田2-85"},"8826":{"lat":39.117504,"lng":141.160324,"lvl":7,"addr":"岩手県奥州市水沢上姉体六丁目6-1"},"8831":{"lat":39.289719,"lng":141.096771,"lvl":7,"addr":"岩手県北上市北鬼柳22地割36番地11"},"8878":{"lat":39.710526,"lng":141.101059,"lvl":8,"addr":"岩手県盛岡市前潟4丁目7-1"},"8890":{"lat":39.611694,"lng":141.172363,"lvl":7,"addr":"岩手県紫波郡矢巾町西徳田第6地割144"},"8895":{"lat":38.931133,"lng":141.116455,"lvl":7,"addr":"岩手県一関市山目字才天222-4"},"8926":{"lat":39.927906,"lng":141.093903,"lvl":7,"addr":"岩手県八幡平市田頭第37地割103番地6"},"9017":{"lat":39.387924,"lng":141.118973,"lvl":8,"addr":"岩手県花巻市仲町5-9"},"9066":{"lat":39.679588,"lng":141.152084,"lvl":8,"addr":"岩手県盛岡市仙北三丁目13番22号"},"9197":{"lat":39.712784,"lng":141.146591,"lvl":8,"addr":"岩手県盛岡市上田一丁目3-10"},"9198":{"lat":39.679707,"lng":141.133209,"lvl":7,"addr":"岩手県盛岡市北飯岡1-2-71"},"9200":{"lat":40.007751,"lng":141.225632,"lvl":5,"addr":"岩手県岩手郡岩手町五日市11-79-66"},"9256":{"lat":39.392437,"lng":141.104111,"lvl":8,"addr":"岩手県花巻市西大通り2丁目1番25号"},"9367":{"lat":39.554855,"lng":141.167816,"lvl":2,"addr":"岩手県紫波郡宇矢巾町大字又兵エ新田5-312"},"9481":{"lat":38.934875,"lng":141.114716,"lvl":7,"addr":"岩手県一関市山目字中野52-1"},"9585":{"lat":40.270397,"lng":141.30368,"lvl":7,"addr":"岩手県二戸市福岡字川又6番1号"},"9592":{"lat":38.936832,"lng":141.112656,"lvl":7,"addr":"岩手県一関市山目字泥田89-1"},"9601":{"lat":39.730007,"lng":141.107483,"lvl":8,"addr":"岩手県盛岡市月が丘二丁目1番35号"},"9705":{"lat":39.138817,"lng":141.138977,"lvl":6,"addr":"岩手県奥州市水沢字横町230番地"},"9748":{"lat":39.262821,"lng":141.83519,"lvl":7,"addr":"岩手県釜石市小佐野町4-2-45"},"9870":{"lat":39.701015,"lng":141.158432,"lvl":8,"addr":"岩手県盛岡市神明町4-20"},"9892":{"lat":39.184601,"lng":141.173264,"lvl":8,"addr":"岩手県奥州市江刺八日町一丁目9番48-2号"},"10077":{"lat":39.333527,"lng":141.529251,"lvl":8,"addr":"岩手県遠野市材木町2-28"},"10079":{"lat":39.911411,"lng":141.125137,"lvl":5,"addr":"岩手県八幡平市大更21-79-1"},"10217":{"lat":39.703308,"lng":141.145279,"lvl":8,"addr":"岩手県盛岡市大通2丁目7-20"},"2":{"lat":38.293877,"lng":140.907852,"lvl":8,"addr":"宮城県仙台市泉区南光台南3丁目20-6"},"20":{"lat":37.972507,"lng":140.783463,"lvl":7,"addr":"宮城県角田市角田字町222-2"},"39":{"lat":38.290539,"lng":140.914749,"lvl":7,"addr":"宮城県仙台市宮城野区鶴ヶ谷二丁目8-12"},"40":{"lat":38.254826,"lng":140.915955,"lvl":7,"addr":"宮城県仙台市宮城野区宮千代3丁目6-6"},"51":{"lat":38.22942,"lng":140.881424,"lvl":8,"addr":"宮城県仙台市太白区長町4丁目7-18"},"105":{"lat":38.430271,"lng":141.282974,"lvl":8,"addr":"宮城県石巻市大街道北3丁目1番7号"},"107":{"lat":38.436321,"lng":140.884384,"lvl":7,"addr":"宮城県黒川郡大和町吉岡まほろば1丁目4-7"},"110":{"lat":38.264114,"lng":140.900589,"lvl":7,"addr":"宮城県仙台市宮城野区原町一丁目3-271階"},"114":{"lat":38.429264,"lng":141.200058,"lvl":6,"addr":"宮城県東松島市小松字谷地208他"},"121":{"lat":38.446373,"lng":140.882004,"lvl":7,"addr":"宮城県黒川郡大和町吉岡字館下45-3"},"133":{"lat":38.621391,"lng":141.19635,"lvl":5,"addr":"宮城県登米市米山町西野字西野前201-3"},"136":{"lat":38.170574,"lng":140.893066,"lvl":7,"addr":"宮城県名取市増田字柳田210-1"},"153":{"lat":38.534241,"lng":140.873184,"lvl":5,"addr":"宮城県加美郡色麻町四竃字瀧149番1"},"163":{"lat":38.327118,"lng":141.029266,"lvl":8,"addr":"宮城県塩竈市藤倉二丁目14番42号"},"167":{"lat":38.235497,"lng":140.90799,"lvl":8,"addr":"宮城県仙台市若林区古城3-6-10"},"172":{"lat":38.270969,"lng":140.870895,"lvl":8,"addr":"宮城県仙台市青葉区上杉1-7-29"},"181":{"lat":38.232841,"lng":140.88588,"lvl":8,"addr":"宮城県仙台市太白区長町一丁目12-10"},"185":{"lat":38.241146,"lng":140.887405,"lvl":7,"addr":"宮城県仙台市若林区舟丁3-1"},"191":{"lat":38.286152,"lng":140.816452,"lvl":7,"addr":"宮城県仙台市青葉区南吉成3丁目1-23"},"198":{"lat":38.293385,"lng":140.998138,"lvl":7,"addr":"宮城県多賀城市高崎3丁目27-26"},"199":{"lat":38.216335,"lng":140.833267,"lvl":8,"addr":"宮城県仙台市太白区山田上ノ台町14-16"},"200":{"lat":38.277302,"lng":140.934601,"lvl":7,"addr":"宮城県仙台市宮城野区新田東1-9-3"},"204":{"lat":38.319038,"lng":141.022736,"lvl":8,"addr":"宮城県塩竈市海岸通11-1"},"205":{"lat":38.456486,"lng":141.277451,"lvl":7,"addr":"宮城県石巻市あけぼの北1-1-7"},"208":{"lat":38.339577,"lng":140.964584,"lvl":7,"addr":"宮城県宮城郡利府町青葉台2丁目2番110"},"210":{"lat":38.232262,"lng":140.872955,"lvl":7,"addr":"宮城県仙台市太白区鹿野本町6-32"},"217":{"lat":38.385124,"lng":140.86911,"lvl":7,"addr":"宮城県黒川郡大和町杜の丘1-16"},"219":{"lat":38.261345,"lng":140.905121,"lvl":8,"addr":"宮城県仙台市宮城野区宮城野2-7-55"},"223":{"lat":38.359608,"lng":140.880295,"lvl":7,"addr":"宮城県富谷市上桜木2-3-1-2"},"224":{"lat":38.077938,"lng":140.812393,"lvl":8,"addr":"宮城県柴田郡柴田町槻木上町1-1-55"},"229":{"lat":38.29821,"lng":140.991913,"lvl":8,"addr":"宮城県多賀城市城南2-14-7"},"230":{"lat":38.273304,"lng":140.780045,"lvl":8,"addr":"宮城県仙台市青葉区愛子東1-4-34"},"233":{"lat":38.252155,"lng":140.93663,"lvl":8,"addr":"宮城県仙台市若林区六丁の目中町1番18号"},"239":{"lat":38.163731,"lng":140.895782,"lvl":7,"addr":"宮城県名取市杜せきのした5丁目3番地の1（22151）"},"244":{"lat":38.285831,"lng":140.812378,"lvl":7,"addr":"宮城県仙台市青葉区南吉成6丁目6-11"},"252":{"lat":38.043797,"lng":140.715836,"lvl":7,"addr":"宮城県柴田郡大河原町字東新町10-11"},"253":{"lat":38.278561,"lng":140.902161,"lvl":7,"addr":"宮城県仙台市宮城野区二の森12-43"},"263":{"lat":38.324173,"lng":140.875824,"lvl":7,"addr":"宮城県仙台市泉区泉中央1丁目38-18"},"270":{"lat":38.428009,"lng":141.371704,"lvl":7,"addr":"宮城県石巻市垂水町3丁目3-18"},"277":{"lat":38.309116,"lng":140.907608,"lvl":6,"addr":"宮城県仙台市泉区松森字館60"},"283":{"lat":38.685719,"lng":141.191864,"lvl":7,"addr":"宮城県登米市迫町佐沼字小金丁49-1"},"291":{"lat":38.203022,"lng":140.900864,"lvl":7,"addr":"宮城県仙台市太白区東中田2丁目39-27"},"293":{"lat":38.001324,"lng":140.620438,"lvl":8,"addr":"宮城県白石市大手町1-8"},"296":{"lat":38.295868,"lng":140.835419,"lvl":7,"addr":"宮城県仙台市青葉区中山7丁目2番30号"},"322":{"lat":38.246056,"lng":140.910828,"lvl":8,"addr":"宮城県仙台市若林区中倉1-5-15"},"324":{"lat":38.239853,"lng":140.950775,"lvl":7,"addr":"宮城県仙台市若林区荒井東1-8-4"},"326":{"lat":38.285061,"lng":140.876022,"lvl":8,"addr":"宮城県仙台市青葉区台原4丁目2-30"},"334":{"lat":38.268818,"lng":140.968201,"lvl":7,"addr":"宮城県仙台市宮城野区高砂2丁目6-17"},"340":{"lat":38.311264,"lng":141.033066,"lvl":8,"addr":"宮城県塩竈市舟入2-3-1"},"341":{"lat":38.271824,"lng":140.867569,"lvl":8,"addr":"宮城県仙台市青葉区二日町18番20"},"343":{"lat":38.312988,"lng":140.908661,"lvl":6,"addr":"宮城県仙台市泉区市名坂字竹内100-6"},"344":{"lat":38.172729,"lng":140.89212,"lvl":7,"addr":"宮城県名取市増田字北谷264-1"},"345":{"lat":38.2784,"lng":140.89566,"lvl":8,"addr":"宮城県仙台市宮城野区幸町1-19-23"},"346":{"lat":38.324959,"lng":140.888412,"lvl":7,"addr":"宮城県仙台市泉区泉中央三丁目37番7"},"353":{"lat":38.446911,"lng":141.274521,"lvl":7,"addr":"宮城県石巻市蛇田字新丸井戸44-1"},"358":{"lat":38.257961,"lng":140.911682,"lvl":7,"addr":"宮城県仙台市宮城野区萩野町1-11-12"},"365":{"lat":38.111568,"lng":140.870193,"lvl":8,"addr":"宮城県岩沼市桜4丁目5-9"},"366":{"lat":38.336697,"lng":140.844894,"lvl":7,"addr":"宮城県仙台市泉区高森4-2-539"},"371":{"lat":37.970657,"lng":140.875305,"lvl":7,"addr":"宮城県亘理郡山元町山寺字石田20-1"},"372":{"lat":38.280521,"lng":140.93364,"lvl":7,"addr":"宮城県仙台市宮城野区新田東5-13-19"},"373":{"lat":38.456417,"lng":141.254044,"lvl":7,"addr":"宮城県石巻市須江字皮剥105-4"},"375":{"lat":38.290237,"lng":140.982864,"lvl":7,"addr":"宮城県多賀城市高橋4丁目4-1"},"380":{"lat":38.227245,"lng":140.89476,"lvl":7,"addr":"宮城県仙台市太白区八本松二丁目8-3"},"387":{"lat":38.295849,"lng":140.915375,"lvl":8,"addr":"宮城県仙台市宮城野区鶴ヶ谷北1-13-21"},"390":{"lat":38.56691,"lng":140.940903,"lvl":7,"addr":"宮城県大崎市古川穂波7丁目2番14号"},"392":{"lat":38.331928,"lng":140.970337,"lvl":7,"addr":"宮城県宮城郡利府町沢乙東2-6"},"399":{"lat":38.193035,"lng":140.911957,"lvl":7,"addr":"宮城県仙台市太白区四郎丸字吹上28-38サニ-フラット460-101"},"400":{"lat":38.291111,"lng":140.843948,"lvl":8,"addr":"宮城県仙台市青葉区中山5-2-3"},"412":{"lat":38.360935,"lng":140.892105,"lvl":7,"addr":"宮城県富谷市成田1-6-8"},"421":{"lat":38.249523,"lng":140.907288,"lvl":8,"addr":"宮城県仙台市若林区白萩町9-20芳賀コ-ポ103号室"},"433":{"lat":38.262417,"lng":140.868088,"lvl":7,"addr":"宮城県仙台市青葉区国分町2-3-111Ｆ"},"446":{"lat":38.261517,"lng":140.905411,"lvl":8,"addr":"宮城県仙台市宮城野区宮城野二丁目7番51号"},"449":{"lat":38.274742,"lng":140.934677,"lvl":7,"addr":"宮城県仙台市宮城野区新田東2-10-5"},"470":{"lat":38.261776,"lng":140.867065,"lvl":8,"addr":"宮城県仙台市青葉区立町1-23"},"472":{"lat":38.250034,"lng":140.904236,"lvl":8,"addr":"宮城県仙台市若林区木ノ下3丁目16-21-102"},"478":{"lat":38.281429,"lng":140.852524,"lvl":8,"addr":"宮城県仙台市青葉区三条町12-7河東田ＢＬＤ101"},"511":{"lat":37.97485,"lng":140.78624,"lvl":7,"addr":"宮城県角田市角田字田町123番地の6"},"519":{"lat":38.734566,"lng":141.023972,"lvl":8,"addr":"宮城県栗原市築館伊豆1丁目8番6号"},"527":{"lat":38.395298,"lng":141.174881,"lvl":7,"addr":"宮城県東松島市牛網新上江戸原27-2"},"552":{"lat":38.586475,"lng":141.256012,"lvl":5,"addr":"宮城県登米市豊里町土手下23-2"},"559":{"lat":38.305714,"lng":141.015396,"lvl":8,"addr":"宮城県多賀城市下馬2丁目13-15"},"589":{"lat":38.456184,"lng":141.280945,"lvl":6,"addr":"宮城県石巻市わかば2-5-1"},"596":{"lat":38.259476,"lng":140.873077,"lvl":7,"addr":"宮城県仙台市青葉区一番町2丁目4番19号シリウス一番町2階"},"597":{"lat":38.251377,"lng":140.921402,"lvl":8,"addr":"宮城県仙台市若林区大和町5丁目1-12"},"604":{"lat":38.23481,"lng":140.881561,"lvl":8,"addr":"宮城県仙台市太白区長町2-9-28"},"632":{"lat":38.442707,"lng":141.264954,"lvl":6,"addr":"宮城県石巻市恵み野5丁目10-3"},"667":{"lat":38.316746,"lng":140.840988,"lvl":7,"addr":"宮城県仙台市泉区長命ヶ丘2丁目2-19"},"669":{"lat":38.238655,"lng":140.93808,"lvl":6,"addr":"宮城県仙台市若林区長喜城字山神45番12"},"672":{"lat":38.109234,"lng":140.867905,"lvl":8,"addr":"宮城県岩沼市中央2丁目5番22号"},"707":{"lat":38.050419,"lng":140.739929,"lvl":7,"addr":"宮城県柴田郡大河原町大谷末広61-1"},"717":{"lat":38.216434,"lng":140.933395,"lvl":8,"addr":"宮城県仙台市若林区六郷4-58"},"742":{"lat":38.515148,"lng":141.31427,"lvl":7,"addr":"宮城県石巻市相野谷字飯野川町73-2"},"748":{"lat":38.229298,"lng":140.883438,"lvl":8,"addr":"宮城県仙台市太白区長町4丁目-3-26"},"752":{"lat":38.572247,"lng":140.864853,"lvl":7,"addr":"宮城県加美郡加美町矢越340-1"},"757":{"lat":37.926167,"lng":140.897964,"lvl":7,"addr":"宮城県亘理郡山元町坂元道合68-4"},"785":{"lat":38.160015,"lng":140.909164,"lvl":6,"addr":"宮城県名取市美田園7丁目18-2"},"852":{"lat":38.271194,"lng":140.875977,"lvl":8,"addr":"宮城県仙台市青葉区上杉3丁目2-28アクス上杉ビル1階"},"862":{"lat":38.197853,"lng":140.901642,"lvl":8,"addr":"宮城県仙台市太白区東中田四丁目5-3"},"864":{"lat":38.270531,"lng":140.96875,"lvl":7,"addr":"宮城県仙台市宮城野区高砂1丁目17-1"},"923":{"lat":38.456184,"lng":141.280945,"lvl":6,"addr":"宮城県石巻市わかば2丁目11-3"},"925":{"lat":38.262997,"lng":140.894547,"lvl":7,"addr":"宮城県仙台市宮城野区鉄砲町東3-15リジェ-ル榴岡公園1Ｆ"},"960":{"lat":38.3158,"lng":140.92334,"lvl":7,"addr":"宮城県仙台市泉区鶴ケ丘1丁目37-2"},"985":{"lat":38.268402,"lng":140.762253,"lvl":7,"addr":"宮城県仙台市青葉区下愛子字観音堂1-1"},"988":{"lat":38.257923,"lng":140.877701,"lvl":8,"addr":"宮城県仙台市青葉区中央四丁目4-8"},"996":{"lat":38.230942,"lng":140.886978,"lvl":8,"addr":"宮城県仙台市太白区あすと長町1丁目2-1"},"1027":{"lat":38.265903,"lng":140.790268,"lvl":7,"addr":"宮城県仙台市青葉区栗生5丁目8-10ロワ-ルＴＮ1Ｆ"},"1030":{"lat":38.692734,"lng":141.189087,"lvl":6,"addr":"宮城県登米市迫町佐沼字中江6番地6"},"1047":{"lat":38.293987,"lng":140.829636,"lvl":5,"addr":"宮城県仙台市青葉区国見ケ丘"},"1049":{"lat":38.296375,"lng":140.855087,"lvl":8,"addr":"宮城県仙台市青葉区水の森3-41-15フロ-ラル共済ビル202"},"1091":{"lat":38.259892,"lng":140.909134,"lvl":8,"addr":"宮城県仙台市宮城野区宮城野2-10-56"},"1297":{"lat":38.32267,"lng":140.879776,"lvl":7,"addr":"宮城県仙台市泉区泉中央1丁目13-2増子ビル1階3号"},"1347":{"lat":38.24102,"lng":140.942245,"lvl":6,"addr":"宮城県仙台市若林区荒井3丁目29-3"},"1387":{"lat":38.906452,"lng":141.550323,"lvl":7,"addr":"宮城県気仙沼市東新城2丁目6-5"},"1421":{"lat":38.276173,"lng":140.934631,"lvl":7,"addr":"宮城県仙台市宮城野区新田東2丁目14-3"},"1424":{"lat":38.303951,"lng":140.879044,"lvl":8,"addr":"宮城県仙台市青葉区北根黒松8-1"},"1466":{"lat":38.265404,"lng":140.868561,"lvl":8,"addr":"宮城県仙台市青葉区国分町2丁目14-25-1Ｆ"},"1494":{"lat":38.330795,"lng":140.883286,"lvl":7,"addr":"宮城県仙台市泉区将監二丁目11-2-1"},"1620":{"lat":38.262642,"lng":140.909348,"lvl":8,"addr":"宮城県仙台市宮城野区銀杏町9-18"},"1636":{"lat":38.437622,"lng":140.884598,"lvl":7,"addr":"宮城県黒川郡大和町吉岡まほろば1-5-3"},"1687":{"lat":38.262329,"lng":140.875504,"lvl":8,"addr":"宮城県仙台市青葉区中央2-10-12"},"1710":{"lat":38.217529,"lng":140.834518,"lvl":7,"addr":"宮城県仙台市太白区山田新町76-1"},"1804":{"lat":38.261326,"lng":140.876175,"lvl":8,"addr":"宮城県仙台市青葉区中央2-5-10-1階"},"1919":{"lat":38.330292,"lng":141.018188,"lvl":8,"addr":"宮城県塩竈市松陽台2丁目16-1"},"1982":{"lat":38.437328,"lng":140.886307,"lvl":3,"addr":"宮城県黒川郡大和町しあわせの杜8-4"},"2042":{"lat":38.295147,"lng":140.893311,"lvl":8,"addr":"宮城県仙台市泉区南光台3-18-2"},"2156":{"lat":38.228672,"lng":140.912598,"lvl":8,"addr":"宮城県仙台市若林区沖野2-16-20"},"2174":{"lat":38.319626,"lng":140.900009,"lvl":7,"addr":"宮城県仙台市泉区市名坂字山岸51-3"},"2227":{"lat":38.191105,"lng":140.873093,"lvl":7,"addr":"宮城県仙台市太白区柳生3丁目4-2"},"2449":{"lat":38.273983,"lng":140.854752,"lvl":8,"addr":"宮城県仙台市青葉区柏木2丁目6-3"},"2633":{"lat":38.03688,"lng":140.860306,"lvl":7,"addr":"宮城県亘理郡亘理町上茨田4-9"},"2750":{"lat":38.239208,"lng":140.789307,"lvl":7,"addr":"宮城県仙台市太白区茂庭台3-30-28"},"2842":{"lat":38.227139,"lng":140.881653,"lvl":8,"addr":"宮城県仙台市太白区長町5-9-13-1Ｆ"},"2998":{"lat":37.941586,"lng":140.89566,"lvl":7,"addr":"宮城県亘理郡山元町高瀬字合戦原111-2"},"3226":{"lat":38.197186,"lng":140.886612,"lvl":7,"addr":"宮城県仙台市太白区中田五丁目7-17"},"3376":{"lat":38.227348,"lng":140.889908,"lvl":7,"addr":"宮城県仙台市太白区郡山1-15-5"},"3496":{"lat":38.376354,"lng":141.14888,"lvl":6,"addr":"宮城県東松島市野蒜ケ丘2-37-2ショッピングプラザ森の風内"},"3533":{"lat":38.211742,"lng":140.859161,"lvl":5,"addr":"宮城県仙台市太白区富沢西4丁目20番地の16"},"3709":{"lat":38.324474,"lng":140.878067,"lvl":7,"addr":"宮城県仙台市泉区泉中央1-20-1"},"3731":{"lat":38.272423,"lng":140.853333,"lvl":8,"addr":"宮城県仙台市青葉区八幡2丁目10-14"},"3756":{"lat":38.272991,"lng":140.786865,"lvl":8,"addr":"宮城県仙台市青葉区落合二丁目16番1号"},"3846":{"lat":38.235218,"lng":140.837494,"lvl":7,"addr":"宮城県仙台市太白区八木山南2-1-291階"},"4035":{"lat":38.326111,"lng":140.972549,"lvl":6,"addr":"宮城県宮城郡利府町利府字新屋田22番地イオンモ-ル新利府北館1階"},"4470":{"lat":38.322071,"lng":140.88623,"lvl":7,"addr":"宮城県仙台市泉区泉中央4丁目20-1"},"4498":{"lat":38.120106,"lng":140.871063,"lvl":8,"addr":"宮城県岩沼市中央4-11-13"},"4585":{"lat":38.338665,"lng":140.965912,"lvl":7,"addr":"宮城県宮城郡利府町青山2-1-9"},"4628":{"lat":38.168964,"lng":140.880386,"lvl":7,"addr":"宮城県名取市大手町5-3-2"},"4660":{"lat":38.534241,"lng":140.873184,"lvl":5,"addr":"宮城県加美郡色麻町四竃字瀧107-1"},"4685":{"lat":38.568794,"lng":140.960693,"lvl":8,"addr":"宮城県大崎市古川中里2-7-1"},"4686":{"lat":38.310539,"lng":140.887054,"lvl":7,"addr":"宮城県仙台市泉区八乙女中央5-13-11"},"4862":{"lat":38.565533,"lng":140.944031,"lvl":7,"addr":"宮城県大崎市古川穂波3丁目8-51"},"4869":{"lat":38.171818,"lng":140.89357,"lvl":7,"addr":"宮城県名取市増田字柳田8-3"},"4914":{"lat":38.295856,"lng":140.885284,"lvl":8,"addr":"宮城県仙台市青葉区旭ヶ丘3丁目26-21-1Ｆ"},"4995":{"lat":38.264286,"lng":140.891891,"lvl":5,"addr":"宮城県仙台市宮城野区小田原弓ノ町100-21階"},"5251":{"lat":38.112461,"lng":140.722015,"lvl":6,"addr":"宮城県柴田郡村田町大字村田字反町82番1"},"5266":{"lat":38.23922,"lng":140.888428,"lvl":8,"addr":"宮城県仙台市若林区河原町1丁目5番25号1階"},"5346":{"lat":38.267857,"lng":140.967957,"lvl":7,"addr":"宮城県仙台市宮城野区高砂2-12-1"},"5566":{"lat":38.274681,"lng":140.884323,"lvl":8,"addr":"宮城県仙台市青葉区宮町4-5-34ｎｏｉｅｓｅｎｄａｉ102"},"5567":{"lat":38.286152,"lng":140.816452,"lvl":7,"addr":"宮城県仙台市青葉区南吉成3-1-23"},"5568":{"lat":38.435875,"lng":140.88916,"lvl":7,"addr":"宮城県黒川郡大和町吉岡まほろば一丁目2-8"},"5569":{"lat":38.319988,"lng":140.843979,"lvl":7,"addr":"宮城県仙台市泉区古内字新坂の上30-5"},"5570":{"lat":38.38015,"lng":141.067291,"lvl":2,"addr":"宮城県宮城県名取市増田字柳田5-1"},"5571":{"lat":38.272751,"lng":140.780396,"lvl":7,"addr":"宮城県仙台市青葉区愛子東1-4-54"},"5572":{"lat":38.330795,"lng":140.883286,"lvl":7,"addr":"宮城県仙台市泉区将監2丁目11-1-1"},"5573":{"lat":38.25948,"lng":140.870407,"lvl":8,"addr":"宮城県仙台市青葉区大町1丁目1-5グレイス大町ビル2階"},"5574":{"lat":38.573959,"lng":140.974457,"lvl":8,"addr":"宮城県大崎市古川駅東二丁目12-25"},"7364":{"lat":38.38015,"lng":141.067291,"lvl":2,"addr":"宮城県宮城県仙台市太白区旗立2丁目4-12"},"7365":{"lat":38.19685,"lng":140.86824,"lvl":7,"addr":"宮城県仙台市太白区柳生7-2-13"},"7366":{"lat":38.191494,"lng":140.899811,"lvl":7,"addr":"宮城県仙台市太白区中田町字前沖163-11"},"7367":{"lat":38.034492,"lng":140.856796,"lvl":7,"addr":"宮城県亘理郡亘理町字中町東168-3"},"7369":{"lat":38.29253,"lng":141.006622,"lvl":8,"addr":"宮城県多賀城市中央3-10-5oggeビル1階"},"7370":{"lat":38.585522,"lng":141.251389,"lvl":7,"addr":"宮城県登米市豊里町小口前37-3"},"7371":{"lat":38.42947,"lng":141.30867,"lvl":8,"addr":"宮城県石巻市中央1-15-5"},"7372":{"lat":38.437759,"lng":141.295593,"lvl":8,"addr":"宮城県石巻市清水町1丁目7-13"},"7373":{"lat":38.421211,"lng":141.341995,"lvl":8,"addr":"宮城県石巻市鹿妻南2丁目9-1"},"7374":{"lat":38.263702,"lng":140.873291,"lvl":8,"addr":"宮城県仙台市青葉区本町2丁目4-8-102"},"7375":{"lat":38.486141,"lng":141.142685,"lvl":5,"addr":"宮城県遠田郡美里町木間塚字砂押75-1"},"7376":{"lat":38.585522,"lng":141.251389,"lvl":7,"addr":"宮城県登米市豊里町小口前37-3"},"8322":{"lat":38.293594,"lng":140.82338,"lvl":7,"addr":"宮城県仙台市青葉区吉成台1丁目2-7"},"8353":{"lat":38.262695,"lng":140.867813,"lvl":8,"addr":"宮城県仙台市青葉区国分町2-3-13"},"8421":{"lat":38.298977,"lng":140.989243,"lvl":8,"addr":"宮城県多賀城市城南1丁目11-43"},"8447":{"lat":38.259415,"lng":140.870071,"lvl":8,"addr":"宮城県仙台市青葉区大町1丁目1-8第3青葉ビル3F"},"8453":{"lat":38.298843,"lng":141.004456,"lvl":8,"addr":"宮城県多賀城市中央1-16-9"},"8491":{"lat":38.252258,"lng":140.919357,"lvl":7,"addr":"宮城県仙台市若林区卸町一丁目1番1号2階"},"8506":{"lat":38.890305,"lng":141.564651,"lvl":7,"addr":"宮城県気仙沼市田中前二丁目8-7-1"},"8514":{"lat":38.262817,"lng":140.877441,"lvl":8,"addr":"宮城県仙台市青葉区中央2丁目11-23太田ビル"},"8540":{"lat":38.266331,"lng":140.8629,"lvl":8,"addr":"宮城県仙台市青葉区支倉町1-31支倉メディカルビル1階"},"8639":{"lat":38.32423,"lng":140.884506,"lvl":7,"addr":"宮城県仙台市泉区泉中央3丁目10-1"},"8641":{"lat":38.271854,"lng":140.757736,"lvl":8,"addr":"宮城県仙台市青葉区愛子中央6丁目7-15ベルハウス愛子中央31階"},"8648":{"lat":38.221237,"lng":140.845657,"lvl":8,"addr":"宮城県仙台市太白区鈎取1-6-16"},"8661":{"lat":38.26646,"lng":140.881104,"lvl":8,"addr":"宮城県仙台市青葉区花京院2丁目2-8"},"8702":{"lat":38.300278,"lng":140.941544,"lvl":7,"addr":"宮城県仙台市宮城野区岩切今市東15-2"},"8706":{"lat":38.43224,"lng":141.258255,"lvl":7,"addr":"宮城県東松島市赤井字台53-1"},"8710":{"lat":38.265423,"lng":140.870346,"lvl":8,"addr":"宮城県仙台市青葉区一番町4丁目10-19ａｓｓｅｓｓ仙台一番町ビル302"},"8722":{"lat":38.290115,"lng":140.754105,"lvl":7,"addr":"宮城県仙台市青葉区高野原4-13-21"},"8724":{"lat":38.306892,"lng":140.955338,"lvl":7,"addr":"宮城県仙台市宮城野区岩切分台3丁目1-5"},"8727":{"lat":38.595211,"lng":141.024261,"lvl":5,"addr":"宮城県大崎市田尻字太子堂1番地の1"},"8731":{"lat":38.298267,"lng":140.988815,"lvl":8,"addr":"宮城県多賀城市城南1丁目10-19"},"8734":{"lat":38.245884,"lng":140.869476,"lvl":7,"addr":"宮城県仙台市太白区向山2丁目18-9-2"},"8736":{"lat":38.266487,"lng":140.891342,"lvl":8,"addr":"宮城県仙台市宮城野区小田原一丁目6-34"},"8740":{"lat":38.196404,"lng":140.906616,"lvl":7,"addr":"宮城県仙台市太白区袋原台31-1"},"8743":{"lat":38.260338,"lng":140.881699,"lvl":7,"addr":"宮城県仙台市青葉区中央1-1-1"},"8746":{"lat":38.552902,"lng":141.048599,"lvl":6,"addr":"宮城県遠田郡美里町牛飼字牛飼145-1"},"8752":{"lat":38.252335,"lng":140.880966,"lvl":8,"addr":"宮城県仙台市青葉区五橋2丁目1-11"},"8755":{"lat":38.222759,"lng":140.850998,"lvl":7,"addr":"宮城県仙台市太白区西多賀4-10-8"},"8759":{"lat":38.260967,"lng":140.874222,"lvl":8,"addr":"宮城県仙台市青葉区一番町3-6-1一番町平和ビル4Ｆ"},"8760":{"lat":38.258282,"lng":140.877808,"lvl":8,"addr":"宮城県仙台市青葉区中央4丁目4-2"},"8788":{"lat":38.569191,"lng":140.960663,"lvl":6,"addr":"宮城県大崎市古川中里二丁目183-8"},"8793":{"lat":38.163731,"lng":140.895782,"lvl":7,"addr":"宮城県名取市杜せきのした5丁目3番地の1"},"8802":{"lat":38.276791,"lng":140.871643,"lvl":7,"addr":"宮城県仙台市青葉区堤通雨宮町1-12階"},"8807":{"lat":38.705063,"lng":141.2883,"lvl":6,"addr":"宮城県登米市東和町米谷字元町185番地2"},"8809":{"lat":38.682396,"lng":141.188217,"lvl":7,"addr":"宮城県登米市迫町佐沼字江合2丁目12-12"},"8823":{"lat":38.581779,"lng":140.959656,"lvl":8,"addr":"宮城県大崎市古川大宮5-1-24"},"8833":{"lat":38.048393,"lng":140.738754,"lvl":7,"addr":"宮城県柴田郡大河原町大谷字町向116-18"},"8835":{"lat":38.6077,"lng":141.054764,"lvl":5,"addr":"宮城県大崎市田尻沼部字新富岡34-1"},"8836":{"lat":38.363411,"lng":140.87381,"lvl":7,"addr":"宮城県富谷市大清水1-33-1"},"8842":{"lat":38.363411,"lng":140.87381,"lvl":7,"addr":"宮城県富谷市大清水一丁目33-1"},"8843":{"lat":38.269806,"lng":140.865799,"lvl":7,"addr":"宮城県仙台市青葉区二日町9番23-1号2階"},"8847":{"lat":38.447937,"lng":141.266296,"lvl":7,"addr":"宮城県石巻市茜平四丁目104番地"},"8865":{"lat":38.889332,"lng":141.572861,"lvl":7,"addr":"宮城県気仙沼市赤岩舘下6-1外"},"8867":{"lat":38.32262,"lng":140.972351,"lvl":7,"addr":"宮城県宮城郡利府町新中道三丁目1-1"},"8898":{"lat":38.298996,"lng":140.825531,"lvl":7,"addr":"宮城県仙台市泉区南中山1丁目35-401階"},"8900":{"lat":38.429867,"lng":141.314041,"lvl":8,"addr":"宮城県石巻市八幡町一丁目6番5号"},"8950":{"lat":38.282185,"lng":141.003723,"lvl":7,"addr":"宮城県多賀城市町前四丁目1番1号"},"8975":{"lat":38.251823,"lng":140.885834,"lvl":7,"addr":"宮城県仙台市若林区連坊小路127フタミビル1F"},"9009":{"lat":38.154339,"lng":140.864761,"lvl":7,"addr":"宮城県名取市愛の杜2丁目1-5"},"9076":{"lat":38.056751,"lng":140.768524,"lvl":8,"addr":"宮城県柴田郡柴田町船岡中央2丁目12-22"},"9119":{"lat":38.270355,"lng":140.862015,"lvl":8,"addr":"宮城県仙台市青葉区木町通1-8-15"},"9135":{"lat":38.311768,"lng":140.769104,"lvl":7,"addr":"宮城県仙台市青葉区みやぎ台3-29-7"},"9146":{"lat":38.302906,"lng":141.032928,"lvl":8,"addr":"宮城県多賀城市笠神4丁目6-9"},"9151":{"lat":38.194164,"lng":140.874115,"lvl":7,"addr":"宮城県仙台市太白区西中田5-17-75"},"9154":{"lat":38.224236,"lng":140.875153,"lvl":8,"addr":"宮城県仙台市太白区長町南3丁目1-50Bonds＆R長町南4F-B"},"9170":{"lat":38.745453,"lng":141.021179,"lvl":7,"addr":"宮城県栗原市築館字留場桜町25-1"},"9652":{"lat":38.421047,"lng":141.219345,"lvl":7,"addr":"宮城県東松島市矢本字南浦30"},"19":{"lat":39.162861,"lng":140.492004,"lvl":8,"addr":"秋田県湯沢市大町2丁目1-10"},"95":{"lat":39.725739,"lng":140.150452,"lvl":7,"addr":"秋田県秋田市広面字蓮沼94-1"},"98":{"lat":39.909466,"lng":139.908432,"lvl":7,"addr":"秋田県男鹿市脇本脇本字石館16"},"118":{"lat":40.226746,"lng":140.024689,"lvl":7,"addr":"秋田県能代市落合字上前田161"},"237":{"lat":39.269203,"lng":140.49707,"lvl":6,"addr":"秋田県横手市平鹿町中吉田字竹原90-1"},"350":{"lat":39.469513,"lng":140.481476,"lvl":8,"addr":"秋田県大仙市福田町22番23-6"},"490":{"lat":40.27018,"lng":140.572281,"lvl":7,"addr":"秋田県大館市赤館町9-50"},"518":{"lat":40.273342,"lng":140.539658,"lvl":8,"addr":"秋田県大館市住吉町3番14号"},"525":{"lat":40.282188,"lng":140.554688,"lvl":8,"addr":"秋田県大館市中道2丁目2番54号"},"1384":{"lat":39.712482,"lng":140.109238,"lvl":7,"addr":"秋田県秋田市旭南1-1-6"},"1385":{"lat":39.676228,"lng":140.092819,"lvl":7,"addr":"秋田県秋田市新屋鳥木町3-2"},"1612":{"lat":39.686001,"lng":140.156052,"lvl":7,"addr":"秋田県秋田市上北手猿田苗代沢207-3"},"1714":{"lat":40.285046,"lng":140.559601,"lvl":8,"addr":"秋田県大館市御成町2丁目5-7"},"1811":{"lat":39.75082,"lng":140.095795,"lvl":7,"addr":"秋田県秋田市外旭川字待合13-6"},"1820":{"lat":39.591694,"lng":140.16864,"lvl":7,"addr":"秋田県秋田市雄和妙法字上大部133-3"},"1899":{"lat":40.190437,"lng":140.786774,"lvl":7,"addr":"秋田県鹿角市花輪字下中島81-6"},"1903":{"lat":39.711327,"lng":140.124359,"lvl":7,"addr":"秋田県秋田市南通築地2-31"},"1911":{"lat":39.704346,"lng":140.148529,"lvl":7,"addr":"秋田県秋田市横森3丁目11-60"},"2458":{"lat":39.709461,"lng":140.102158,"lvl":7,"addr":"秋田県秋田市川尻上野町1-73"},"2582":{"lat":39.314041,"lng":140.552246,"lvl":8,"addr":"秋田県横手市条里3丁目1番10号"},"2832":{"lat":39.723564,"lng":140.143936,"lvl":7,"addr":"秋田県秋田市広面家ノ下35-1"},"2972":{"lat":39.314514,"lng":140.550323,"lvl":6,"addr":"秋田県横手市横手町四ノ口48-4"},"3193":{"lat":39.505688,"lng":140.599411,"lvl":5,"addr":"秋田県大仙市太田町横沢字久保関北718-1"},"3408":{"lat":39.67408,"lng":140.125397,"lvl":7,"addr":"秋田県秋田市仁井田本町5-7-6"},"3704":{"lat":39.392731,"lng":140.052505,"lvl":7,"addr":"秋田県由利本荘市岩渕下108-2"},"3848":{"lat":39.28326,"lng":139.966019,"lvl":7,"addr":"秋田県にかほ市平沢字行ヒ森2-5"},"4060":{"lat":39.716328,"lng":140.147278,"lvl":7,"addr":"秋田県秋田市広面字鍋沼35番"},"4279":{"lat":40.281734,"lng":140.563766,"lvl":8,"addr":"秋田県大館市有浦2丁目4-18"},"4289":{"lat":40.253426,"lng":140.566788,"lvl":7,"addr":"秋田県大館市池内字田中176-1"},"4462":{"lat":39.392628,"lng":140.051285,"lvl":7,"addr":"秋田県由利本荘市岩渕下68-2"},"4587":{"lat":39.663094,"lng":140.160889,"lvl":7,"addr":"秋田県秋田市御所野地蔵田1-1-1イオンショッピングセンタ-"},"4836":{"lat":40.271923,"lng":140.555481,"lvl":8,"addr":"秋田県大館市幸町2-24"},"5242":{"lat":39.385941,"lng":140.061584,"lvl":7,"addr":"秋田県由利本荘市中梵天108"},"5278":{"lat":40.222687,"lng":140.59021,"lvl":6,"addr":"秋田県大館市比内町扇田字大谷地25-1"},"5284":{"lat":40.191753,"lng":140.036758,"lvl":7,"addr":"秋田県能代市字東大瀬51-3"},"5550":{"lat":40.280365,"lng":140.559509,"lvl":8,"addr":"秋田県大館市御成町三丁目7-58"},"5551":{"lat":40.118866,"lng":140.373749,"lvl":7,"addr":"秋田県北秋田市米内沢字林の腰14-25"},"5552":{"lat":39.717766,"lng":140.12709,"lvl":7,"addr":"秋田県秋田市千秋久保田町3-15"},"5553":{"lat":39.71487,"lng":140.10527,"lvl":7,"addr":"秋田県秋田市山王5丁目10-28"},"7360":{"lat":39.383171,"lng":140.06366,"lvl":5,"addr":"秋田県由利本荘市東梵天173-1"},"7361":{"lat":40.283436,"lng":140.574524,"lvl":7,"addr":"秋田県大館市観音堂431-8"},"8419":{"lat":39.438168,"lng":140.509277,"lvl":7,"addr":"秋田県大仙市和合字坪立177番地"},"8609":{"lat":40.224693,"lng":140.022919,"lvl":7,"addr":"秋田県能代市落合上悪土163"},"8678":{"lat":39.175339,"lng":140.479248,"lvl":5,"addr":"秋田県湯沢市沖鶴199-2"},"9278":{"lat":40.20639,"lng":140.020935,"lvl":8,"addr":"秋田県能代市景林町9-23"},"9291":{"lat":39.309086,"lng":140.574249,"lvl":8,"addr":"秋田県横手市清川町13-32"},"9305":{"lat":40.209644,"lng":140.025208,"lvl":8,"addr":"秋田県能代市柳町11-1"},"9315":{"lat":39.298595,"lng":140.553864,"lvl":7,"addr":"秋田県横手市安田字向田147"},"9316":{"lat":39.704174,"lng":140.109818,"lvl":7,"addr":"秋田県秋田市楢山川口境5-11"},"9330":{"lat":39.747196,"lng":140.073059,"lvl":7,"addr":"秋田県秋田市土崎港南2丁目3-41"},"9343":{"lat":40.205345,"lng":140.237747,"lvl":7,"addr":"秋田県能代市二ツ井町比井野92番地"},"9372":{"lat":40.27446,"lng":140.55365,"lvl":8,"addr":"秋田県大館市豊町9番46号"},"9373":{"lat":40.189766,"lng":140.078125,"lvl":6,"addr":"秋田県能代市鰄渕字古屋布1番"},"9374":{"lat":39.746273,"lng":140.106049,"lvl":7,"addr":"秋田県秋田市外旭川字梶ノ目509-3"},"9378":{"lat":39.309212,"lng":140.550827,"lvl":8,"addr":"秋田県横手市条里1-15-26"},"9382":{"lat":39.313015,"lng":140.561569,"lvl":8,"addr":"秋田県横手市寿町11-35"},"9392":{"lat":39.617458,"lng":140.327301,"lvl":5,"addr":"秋田県大仙市協和境字野田86-1"},"9393":{"lat":40.198353,"lng":140.033371,"lvl":8,"addr":"秋田県能代市緑町2-20"},"9399":{"lat":39.719803,"lng":140.117813,"lvl":7,"addr":"秋田県秋田市大町1丁目2-7"},"9405":{"lat":39.589138,"lng":140.559113,"lvl":6,"addr":"秋田県仙北市角館町西田99-1"},"9544":{"lat":39.549213,"lng":140.071701,"lvl":5,"addr":"秋田県由利本荘市岩城内道川字馬道44-17"},"9555":{"lat":39.169025,"lng":140.489609,"lvl":8,"addr":"秋田県湯沢市表町4-9-10"},"9603":{"lat":39.715202,"lng":140.134216,"lvl":7,"addr":"秋田県秋田市東通一丁目5-16"},"9611":{"lat":39.729149,"lng":140.149078,"lvl":7,"addr":"秋田県秋田市広面字蓮沼44番2"},"9617":{"lat":39.657207,"lng":140.565048,"lvl":5,"addr":"秋田県仙北市西木町門屋字道目木320-1"},"9618":{"lat":39.717518,"lng":140.137009,"lvl":7,"addr":"秋田県秋田市手形字中谷地325番地"},"9621":{"lat":39.317657,"lng":140.566162,"lvl":8,"addr":"秋田県横手市四日町1-2"},"9623":{"lat":39.715672,"lng":140.137115,"lvl":7,"addr":"秋田県秋田市東通1丁目22-1"},"9629":{"lat":39.931881,"lng":139.940598,"lvl":5,"addr":"秋田県男鹿市払戸字渡部104番地1"},"9765":{"lat":39.714958,"lng":140.093552,"lvl":7,"addr":"秋田県秋田市山王中園町10-28"},"9820":{"lat":39.719929,"lng":140.102509,"lvl":1,"addr":"秋田県美郷町六郷字馬町58番地2"},"9876":{"lat":39.319176,"lng":140.5504,"lvl":7,"addr":"秋田県横手市横手町字大関越175"},"9887":{"lat":40.270237,"lng":140.770401,"lvl":7,"addr":"秋田県鹿角市十和田毛馬内字古下タ33-3"},"9893":{"lat":40.107265,"lng":139.983322,"lvl":5,"addr":"秋田県山本郡三種町浜田字東浜田139-2"},"9958":{"lat":39.227386,"lng":140.519165,"lvl":6,"addr":"秋田県横手市十文字町海道下89-4"},"9959":{"lat":39.387348,"lng":140.049713,"lvl":7,"addr":"秋田県由利本荘市裏尾崎町4-3"},"9960":{"lat":39.713905,"lng":140.119553,"lvl":7,"addr":"秋田県秋田市中通5丁目7-1"},"9961":{"lat":39.465809,"lng":140.475327,"lvl":8,"addr":"秋田県大仙市大曲福住町9-22"},"9962":{"lat":39.387924,"lng":140.058929,"lvl":7,"addr":"秋田県由利本荘市西梵天75-4"},"9967":{"lat":39.206711,"lng":139.900192,"lvl":6,"addr":"秋田県にかほ市象潟町字家ノ後65-26"},"9968":{"lat":39.389126,"lng":140.044067,"lvl":7,"addr":"秋田県由利本荘市給人町7-3"},"9972":{"lat":39.402561,"lng":140.030716,"lvl":7,"addr":"秋田県由利本荘市石脇字田尻野6-11"},"9975":{"lat":39.380219,"lng":140.046051,"lvl":7,"addr":"秋田県由利本荘市小人町223-1"},"9976":{"lat":39.71526,"lng":140.122742,"lvl":7,"addr":"秋田県秋田市中通四丁目1-40"},"9981":{"lat":40.224129,"lng":140.595963,"lvl":7,"addr":"秋田県大館市比内町扇田字山崎46-5"},"9985":{"lat":40.282135,"lng":140.559387,"lvl":8,"addr":"秋田県大館市御成町3丁目2-6"},"9986":{"lat":39.946297,"lng":140.103851,"lvl":7,"addr":"秋田県南秋田郡八郎潟町川崎字貝保37番6"},"9987":{"lat":39.437786,"lng":140.21785,"lvl":5,"addr":"秋田県由利本荘市中田代字板井沢112-8"},"9994":{"lat":40.271893,"lng":140.554947,"lvl":8,"addr":"秋田県大館市幸町3-44"},"9998":{"lat":39.354492,"lng":140.079834,"lvl":6,"addr":"秋田県由利本荘市荒町字真城72"},"10035":{"lat":39.189941,"lng":140.437988,"lvl":5,"addr":"秋田県雄勝郡羽後町稲荷94-2"},"10099":{"lat":39.711964,"lng":140.139801,"lvl":7,"addr":"秋田県秋田市東通8丁目1-31"},"10100":{"lat":39.719505,"lng":140.131134,"lvl":7,"addr":"秋田県秋田市手形字山崎92-33"},"10105":{"lat":39.317776,"lng":140.569031,"lvl":8,"addr":"秋田県横手市根岸町8-35"},"10106":{"lat":39.660267,"lng":140.162582,"lvl":7,"addr":"秋田県秋田市御所野元町一丁目1番17号"},"10131":{"lat":39.717426,"lng":140.114502,"lvl":7,"addr":"秋田県秋田市大町三丁目4番40"},"10159":{"lat":39.790874,"lng":140.057571,"lvl":7,"addr":"秋田県秋田市飯島字堀川83-1"},"4417":{"lat":38.367645,"lng":140.281342,"lvl":8,"addr":"山形県寒河江市栄町9-36"},"5073":{"lat":38.049782,"lng":140.156677,"lvl":7,"addr":"山形県南陽市三間通28-1"},"5077":{"lat":38.104183,"lng":140.038101,"lvl":8,"addr":"山形県長井市本町2-4-36"},"5098":{"lat":38.278687,"lng":140.331573,"lvl":8,"addr":"山形県山形市桧町三丁目8番27号"},"5102":{"lat":37.912296,"lng":140.112793,"lvl":8,"addr":"山形県米沢市中央1-2-15"},"5168":{"lat":38.239697,"lng":140.319885,"lvl":7,"addr":"山形県山形市篭田一丁目14番25号"},"5170":{"lat":38.355717,"lng":140.380936,"lvl":8,"addr":"山形県天童市天童中3-1-15"},"5180":{"lat":38.431103,"lng":140.389908,"lvl":8,"addr":"山形県東根市中央2-1-25"},"5240":{"lat":38.236431,"lng":140.314331,"lvl":8,"addr":"山形県山形市南館3-1-33"},"5319":{"lat":38.416237,"lng":140.308899,"lvl":7,"addr":"山形県西村山郡河北町谷地中央4丁目8番6号"},"5465":{"lat":38.20472,"lng":140.306534,"lvl":7,"addr":"山形県山形市大字松原300-6"},"5466":{"lat":38.242348,"lng":140.320221,"lvl":7,"addr":"山形県山形市上町一丁目9-7"},"5467":{"lat":38.252232,"lng":140.338531,"lvl":8,"addr":"山形県山形市七日町1-2-35"},"5468":{"lat":38.253754,"lng":140.351608,"lvl":8,"addr":"山形県山形市緑町4-14-63"},"5469":{"lat":38.243271,"lng":140.362717,"lvl":7,"addr":"山形県山形市あさひ町15-16"},"5470":{"lat":38.917374,"lng":139.833725,"lvl":8,"addr":"山形県酒田市中町3-7-1"},"5471":{"lat":38.261211,"lng":140.351517,"lvl":8,"addr":"山形県山形市双月町2-2-1"},"5472":{"lat":37.902431,"lng":140.098602,"lvl":7,"addr":"山形県米沢市林泉寺2-2-97"},"5473":{"lat":38.713207,"lng":139.824249,"lvl":6,"addr":"山形県鶴岡市日枝字海老島161-2"},"5474":{"lat":38.76556,"lng":140.30986,"lvl":6,"addr":"山形県新庄市金沢字中関屋730-11"},"5475":{"lat":38.287926,"lng":140.272949,"lvl":7,"addr":"山形県東村山郡山辺町山辺6139-8"},"5476":{"lat":38.254154,"lng":140.338776,"lvl":8,"addr":"山形県山形市七日町一丁目4-20"},"5478":{"lat":38.215157,"lng":140.321701,"lvl":7,"addr":"山形県山形市飯田西4-4-3"},"5479":{"lat":38.722954,"lng":139.828461,"lvl":8,"addr":"山形県鶴岡市本町二丁目16番1号"},"5480":{"lat":38.355244,"lng":140.384857,"lvl":8,"addr":"山形県天童市鍬ノ町一丁目2番18号"},"5481":{"lat":38.76556,"lng":140.30986,"lvl":6,"addr":"山形県新庄市金沢字中関屋815-8-7002"},"5482":{"lat":38.378651,"lng":140.263092,"lvl":7,"addr":"山形県寒河江市大字寒河江字塩水59-1"},"5483":{"lat":37.911762,"lng":140.108368,"lvl":8,"addr":"山形県米沢市丸の内2-1-14"},"5484":{"lat":38.284119,"lng":140.334793,"lvl":8,"addr":"山形県山形市馬見ヶ崎四丁目1-18"},"5485":{"lat":38.935894,"lng":139.845673,"lvl":7,"addr":"山形県酒田市ゆたか2丁目1-1"},"5486":{"lat":38.968971,"lng":139.936371,"lvl":7,"addr":"山形県酒田市小泉字前田72-1"},"5487":{"lat":38.216377,"lng":140.322433,"lvl":7,"addr":"山形県山形市飯田西1-2-17"},"5488":{"lat":38.223091,"lng":140.319626,"lvl":8,"addr":"山形県山形市元木3-3-2"},"5489":{"lat":38.231426,"lng":140.340759,"lvl":8,"addr":"山形県山形市松見町21-10"},"5490":{"lat":38.460754,"lng":140.387024,"lvl":8,"addr":"山形県東根市温泉町2-5-23"},"5491":{"lat":38.068924,"lng":140.142319,"lvl":7,"addr":"山形県南陽市宮内1176-13"},"5492":{"lat":38.354271,"lng":140.364548,"lvl":8,"addr":"山形県天童市駅西5丁目1番9号"},"5493":{"lat":38.260143,"lng":140.322617,"lvl":8,"addr":"山形県山形市城西町四丁目19-3"},"5494":{"lat":38.727806,"lng":139.828476,"lvl":8,"addr":"山形県鶴岡市馬場町7-29-1"},"5495":{"lat":38.414268,"lng":140.307068,"lvl":7,"addr":"山形県西村山郡河北町谷地字月山堂136-6"},"5496":{"lat":38.08419,"lng":140.03978,"lvl":5,"addr":"山形県長井市泉1926-13"},"5497":{"lat":38.744663,"lng":139.768951,"lvl":8,"addr":"山形県鶴岡市平成町10-6"},"5498":{"lat":38.360062,"lng":140.385056,"lvl":8,"addr":"山形県天童市鎌田1丁目6-8"},"5499":{"lat":37.909172,"lng":140.122177,"lvl":8,"addr":"山形県米沢市駅前2丁目3-18"},"5500":{"lat":38.220757,"lng":140.338882,"lvl":8,"addr":"山形県山形市東青田3丁目11-5"},"5502":{"lat":38.25206,"lng":140.329865,"lvl":8,"addr":"山形県山形市桜町1-12"},"5503":{"lat":38.73629,"lng":139.826126,"lvl":8,"addr":"山形県鶴岡市新形町4-31"},"5504":{"lat":38.723869,"lng":139.824936,"lvl":8,"addr":"山形県鶴岡市本町2丁目11-22"},"5505":{"lat":38.22805,"lng":140.313217,"lvl":8,"addr":"山形県山形市吉原2丁目10-10"},"5506":{"lat":37.908501,"lng":140.126389,"lvl":8,"addr":"山形県米沢市東3丁目4-48"},"5507":{"lat":38.733711,"lng":139.836823,"lvl":8,"addr":"山形県鶴岡市日吉町11-11"},"5508":{"lat":38.044968,"lng":140.058105,"lvl":5,"addr":"山形県東置賜郡川西町西大塚堂ノ前参1973"},"5509":{"lat":38.209602,"lng":140.315231,"lvl":8,"addr":"山形県山形市成沢西2丁目9-6"},"5510":{"lat":38.279934,"lng":140.357605,"lvl":8,"addr":"山形県山形市大野目2-2-35"},"5511":{"lat":38.170273,"lng":140.300308,"lvl":7,"addr":"山形県上山市金谷字金ヶ瀬1120-1"},"5512":{"lat":38.791195,"lng":139.975952,"lvl":5,"addr":"山形県東田川郡庄内町狩川字楯下34"},"5513":{"lat":38.264313,"lng":140.337021,"lvl":8,"addr":"山形県山形市宮町一丁目5-22"},"5514":{"lat":38.044968,"lng":140.058105,"lvl":5,"addr":"山形県川西町西大塚字横道1371-5"},"5515":{"lat":37.904774,"lng":140.118698,"lvl":7,"addr":"山形県米沢市相生町6-361Ｆ"},"5516":{"lat":38.415447,"lng":140.308716,"lvl":7,"addr":"山形県西村山郡河北町谷地字月山堂165-7"},"5517":{"lat":38.192623,"lng":140.12291,"lvl":7,"addr":"山形県白鷹町大字十王5059-16"},"5518":{"lat":38.272457,"lng":140.348068,"lvl":8,"addr":"山形県山形市花楯2丁目6-13"},"5519":{"lat":38.779781,"lng":140.522079,"lvl":5,"addr":"山形県最上郡最上町大字向町68-11"},"5520":{"lat":37.916183,"lng":140.094681,"lvl":8,"addr":"山形県米沢市木場町3-9"},"5521":{"lat":38.284111,"lng":140.3349,"lvl":8,"addr":"山形県山形市馬見ケ崎四丁目-1-19"},"5522":{"lat":38.289207,"lng":140.323807,"lvl":7,"addr":"山形県山形市嶋北3丁目1-4"},"5523":{"lat":38.248108,"lng":140.32254,"lvl":8,"addr":"山形県山形市双葉町1-4-18"},"5524":{"lat":38.24966,"lng":140.34671,"lvl":8,"addr":"山形県山形市東原町1-12-24"},"5525":{"lat":38.279968,"lng":140.31604,"lvl":7,"addr":"山形県山形市嶋南3-5-20"},"5526":{"lat":38.815754,"lng":139.835663,"lvl":7,"addr":"山形県東田川郡三川町大字猪子字和田庫128-1"},"5575":{"lat":38.76556,"lng":140.30986,"lvl":6,"addr":"山形県新庄市金沢字中関屋800番4"},"5576":{"lat":38.695293,"lng":140.321243,"lvl":5,"addr":"山形県最上郡舟形町舟形352-10"},"5577":{"lat":38.903004,"lng":139.84996,"lvl":8,"addr":"山形県酒田市亀ヶ崎3丁目9-15"},"5578":{"lat":38.892193,"lng":139.852859,"lvl":7,"addr":"山形県酒田市あきほ町120-1"},"5579":{"lat":38.919621,"lng":139.863266,"lvl":7,"addr":"山形県酒田市曙町2丁目17-1"},"5580":{"lat":38.895199,"lng":139.854691,"lvl":7,"addr":"山形県酒田市こがね町2丁目27-3"},"5581":{"lat":38.908909,"lng":139.855347,"lvl":7,"addr":"山形県酒田市東大町1-10-35"},"5582":{"lat":38.846539,"lng":139.84787,"lvl":7,"addr":"山形県酒田市広野字上通183"},"5583":{"lat":38.905972,"lng":139.855621,"lvl":8,"addr":"山形県酒田市大町7-16"},"5584":{"lat":38.926929,"lng":139.842072,"lvl":8,"addr":"山形県酒田市泉町1-16"},"5585":{"lat":38.725464,"lng":139.834442,"lvl":8,"addr":"山形県鶴岡市昭和町8-30"},"5587":{"lat":38.714676,"lng":139.828201,"lvl":8,"addr":"山形県鶴岡市文園町10-12"},"5588":{"lat":38.26601,"lng":140.333542,"lvl":8,"addr":"山形県山形市宮町2-1-2"},"5589":{"lat":38.246494,"lng":140.355469,"lvl":7,"addr":"山形県山形市小白川町4-8-12"},"5590":{"lat":38.270691,"lng":140.353088,"lvl":8,"addr":"山形県山形市花楯1丁目16-12"},"5591":{"lat":38.257145,"lng":140.289688,"lvl":7,"addr":"山形県山形市飯塚町448-3"},"5592":{"lat":38.241085,"lng":140.319748,"lvl":7,"addr":"山形県山形市上町3-11-6"},"5593":{"lat":38.356976,"lng":140.384628,"lvl":8,"addr":"山形県天童市鍬ノ町1丁目1番17号"},"5594":{"lat":38.299446,"lng":140.35141,"lvl":5,"addr":"山形県山形市大字青柳1561-8"},"5595":{"lat":38.215599,"lng":140.27623,"lvl":7,"addr":"山形県山形市長谷堂113-2"},"5596":{"lat":38.312016,"lng":140.335205,"lvl":5,"addr":"山形県山形市千手堂大門97-3"},"5597":{"lat":38.208023,"lng":140.31987,"lvl":8,"addr":"山形県山形市成沢西5-6-20"},"5598":{"lat":38.60442,"lng":140.404022,"lvl":8,"addr":"山形県尾花沢市中町2番60号"},"5599":{"lat":38.408508,"lng":140.379684,"lvl":8,"addr":"山形県東根市神町中央1-10-7"},"5600":{"lat":38.415203,"lng":140.310883,"lvl":7,"addr":"山形県西村山郡河北町谷地字月山堂375"},"5601":{"lat":38.377434,"lng":140.260956,"lvl":7,"addr":"山形県寒河江市大字寒河江字塩水71外"},"5602":{"lat":38.372524,"lng":140.262802,"lvl":7,"addr":"山形県寒河江市内ノ袋1-9-6"},"5603":{"lat":37.91935,"lng":140.096252,"lvl":8,"addr":"山形県米沢市西大通2丁目3-61"},"5604":{"lat":37.96273,"lng":140.12883,"lvl":5,"addr":"山形県米沢市窪田町窪田1302-2"},"5605":{"lat":37.914497,"lng":140.140244,"lvl":7,"addr":"山形県米沢市アルカディア一丁目808-32"},"5606":{"lat":38.044968,"lng":140.058105,"lvl":5,"addr":"山形県東置賜郡川西町西大塚1447番地4"},"5607":{"lat":37.996117,"lng":140.185989,"lvl":5,"addr":"山形県高畠町大字泉岡426-1"},"5608":{"lat":38.007774,"lng":140.051682,"lvl":7,"addr":"山形県川西町大字上小松1417-2"},"5609":{"lat":38.109024,"lng":140.028366,"lvl":8,"addr":"山形県長井市幸町16-12"},"7191":{"lat":38.168114,"lng":140.292023,"lvl":8,"addr":"山形県上山市弁天一丁目11-36"},"7377":{"lat":38.772072,"lng":140.294357,"lvl":7,"addr":"山形県新庄市桧町10-8"},"7378":{"lat":38.755116,"lng":140.302582,"lvl":7,"addr":"山形県新庄市下金沢町5-37"},"7379":{"lat":38.730125,"lng":139.835724,"lvl":8,"addr":"山形県鶴岡市山王町14-1"},"7380":{"lat":38.286694,"lng":140.317444,"lvl":7,"addr":"山形県山形市嶋北4丁目2-18"},"7381":{"lat":38.428829,"lng":140.387299,"lvl":8,"addr":"山形県東根市さくらんぼ駅前二丁目10-3"},"7382":{"lat":37.903717,"lng":140.119492,"lvl":8,"addr":"山形県米沢市福田町2丁目1-57アメニティセンタ-1階"},"7383":{"lat":37.925102,"lng":140.138596,"lvl":5,"addr":"山形県米沢市川井2356-3"},"8289":{"lat":38.725655,"lng":139.831467,"lvl":7,"addr":"山形県鶴岡市本町1-8-221階"},"8306":{"lat":38.353363,"lng":140.279617,"lvl":7,"addr":"山形県寒河江市大字高屋字西浦429番地"},"8321":{"lat":38.886372,"lng":140.39064,"lvl":5,"addr":"山形県最上郡金山町大字金山509-2"},"8340":{"lat":38.040771,"lng":140.171814,"lvl":5,"addr":"山形県南陽市椚塚1177"},"8359":{"lat":38.889099,"lng":139.8564,"lvl":7,"addr":"山形県酒田市大宮町1丁目5-2"},"8374":{"lat":38.768585,"lng":140.308762,"lvl":7,"addr":"山形県新庄市金沢702-3"},"8465":{"lat":38.213211,"lng":140.304962,"lvl":5,"addr":"山形県山形市片谷地315-6"},"8493":{"lat":38.339272,"lng":140.361099,"lvl":8,"addr":"山形県天童市芳賀タウン南三丁目7番14号"},"8535":{"lat":38.108936,"lng":140.037857,"lvl":8,"addr":"山形県長井市栄町10-2"},"8617":{"lat":38.736298,"lng":139.799484,"lvl":8,"addr":"山形県鶴岡市美咲町25-20"},"8698":{"lat":38.384777,"lng":140.378479,"lvl":8,"addr":"山形県天童市乱川3-2-3"},"8846":{"lat":38.272022,"lng":140.351151,"lvl":7,"addr":"山形県山形市五十鈴1-1-3"},"8913":{"lat":38.253212,"lng":140.338409,"lvl":8,"addr":"山形県山形市七日町1-4-47シティタワ-山形七日町1階"},"8931":{"lat":38.299446,"lng":140.35141,"lvl":5,"addr":"山形県山形市大字青柳1544-9"},"9072":{"lat":38.476547,"lng":140.38475,"lvl":8,"addr":"山形県村山市駅西18-5"},"9080":{"lat":38.154148,"lng":140.278305,"lvl":8,"addr":"山形県上山市八日町4-26"},"9129":{"lat":38.312366,"lng":140.342422,"lvl":7,"addr":"山形県山形市漆山2579-6"},"9134":{"lat":37.919254,"lng":140.121277,"lvl":5,"addr":"山形県米沢市花沢町2686-5"},"9190":{"lat":38.755608,"lng":139.840424,"lvl":5,"addr":"山形県鶴岡市北茅原町1-21"},"9310":{"lat":38.295231,"lng":140.270966,"lvl":7,"addr":"山形県東村山郡山辺町大字山辺1258番地12"},"9349":{"lat":38.24778,"lng":140.343292,"lvl":7,"addr":"山形県山形市小姓町6-50"},"9376":{"lat":37.907848,"lng":140.113022,"lvl":8,"addr":"山形県米沢市大町3丁目6-10"},"9387":{"lat":38.722763,"lng":139.821625,"lvl":8,"addr":"山形県鶴岡市本町3-17-19"},"9511":{"lat":38.723492,"lng":139.829483,"lvl":8,"addr":"山形県鶴岡市本町2丁目6-15"},"9523":{"lat":38.392517,"lng":140.27861,"lvl":7,"addr":"山形県寒河江市西根字下堰507"},"9658":{"lat":38.475822,"lng":140.39064,"lvl":8,"addr":"山形県村山市楯岡新町2-8-21"},"9666":{"lat":38.299446,"lng":140.35141,"lvl":5,"addr":"山形県山形市青柳1539-1"},"9795":{"lat":38.922157,"lng":139.853821,"lvl":7,"addr":"山形県酒田市新橋1-14-6"},"9829":{"lat":38.178013,"lng":140.094086,"lvl":7,"addr":"山形県西置賜郡白鷹町荒砥甲624-2"},"9841":{"lat":38.358437,"lng":140.27916,"lvl":7,"addr":"山形県寒河江市大字島字島東87番地"},"9877":{"lat":37.923332,"lng":140.107864,"lvl":8,"addr":"山形県米沢市春日2-13-4"},"10185":{"lat":38.278515,"lng":140.308273,"lvl":8,"addr":"山形県山形市瀬波1-6-3"},"3":{"lat":37.472286,"lng":139.906113,"lvl":6,"addr":"福島県会津若松市門田町飯寺南1丁目14-18"},"7":{"lat":37.731831,"lng":140.446533,"lvl":7,"addr":"福島県福島市大森字舘ノ内74-1"},"9":{"lat":37.396603,"lng":140.345764,"lvl":8,"addr":"福島県郡山市島二丁目22番1号"},"10":{"lat":37.294666,"lng":140.373962,"lvl":7,"addr":"福島県須賀川市北町10-1"},"12":{"lat":37.758915,"lng":140.460648,"lvl":8,"addr":"福島県福島市曾根田町1-18ＭＡＸふくしま1階"},"14":{"lat":37.426277,"lng":140.378601,"lvl":7,"addr":"福島県郡山市八山田5丁目77"},"15":{"lat":37.396927,"lng":140.339508,"lvl":6,"addr":"福島県郡山市鳴神1-1-2"},"21":{"lat":37.036911,"lng":140.894135,"lvl":7,"addr":"福島県いわき市平上荒川字安草15-4"},"26":{"lat":37.398159,"lng":140.347061,"lvl":8,"addr":"福島県郡山市島2丁目44-29"},"28":{"lat":37.872501,"lng":140.540741,"lvl":7,"addr":"福島県伊達郡国見町塚野目字三本木14-1"},"33":{"lat":36.985657,"lng":140.893875,"lvl":7,"addr":"福島県いわき市小名浜林城字塚前21-3"},"35":{"lat":37.517101,"lng":140.404755,"lvl":7,"addr":"福島県本宮市本宮字荒町49-9"},"37":{"lat":36.959866,"lng":140.852737,"lvl":7,"addr":"福島県いわき市泉玉露5丁目7-6"},"41":{"lat":37.649319,"lng":139.871429,"lvl":7,"addr":"福島県喜多方市字三丁目4781-2"},"42":{"lat":37.425659,"lng":140.364929,"lvl":7,"addr":"福島県郡山市富田東三丁目22番地"},"45":{"lat":37.3592,"lng":140.340729,"lvl":7,"addr":"福島県郡山市安積町成田字漆山50"},"46":{"lat":37.497002,"lng":139.940414,"lvl":7,"addr":"福島県会津若松市千石町9番23号"},"52":{"lat":37.50869,"lng":139.935196,"lvl":5,"addr":"福島県会津若松市白虎二丁目4番地の2"},"70":{"lat":37.045261,"lng":140.862411,"lvl":7,"addr":"福島県いわき市内郷高坂町大町26-7"},"71":{"lat":37.49081,"lng":139.921356,"lvl":8,"addr":"福島県会津若松市湯川町1-58"},"73":{"lat":37.491817,"lng":139.921844,"lvl":8,"addr":"福島県会津若松市本町1-35"},"85":{"lat":37.42268,"lng":140.383636,"lvl":7,"addr":"福島県郡山市八山田7-107"},"90":{"lat":37.821125,"lng":140.559113,"lvl":7,"addr":"福島県伊達市保原町字城ノ内57-1"},"91":{"lat":36.965645,"lng":140.935471,"lvl":7,"addr":"福島県いわき市洋向台5丁目2-8"},"113":{"lat":37.663795,"lng":140.594772,"lvl":7,"addr":"福島県伊達郡川俣町大字鶴沢字京田38-1"},"124":{"lat":36.985516,"lng":140.859894,"lvl":7,"addr":"福島県いわき市常磐西郷町岩崎28-10"},"132":{"lat":37.391228,"lng":140.33461,"lvl":7,"addr":"福島県郡山市大槻町字北ノ林27番13の1"},"138":{"lat":37.157738,"lng":140.293427,"lvl":6,"addr":"福島県泉崎村大字泉崎字山ヶ入69-6"},"140":{"lat":37.376678,"lng":140.365402,"lvl":7,"addr":"福島県郡山市名倉23-2"},"183":{"lat":37.01527,"lng":140.390488,"lvl":7,"addr":"福島県棚倉町大字流字餅田16-1"},"195":{"lat":37.0369,"lng":140.860855,"lvl":7,"addr":"福島県いわき市内郷綴町金谷11-6"},"203":{"lat":37.802464,"lng":140.920975,"lvl":7,"addr":"福島県相馬市中村字荒井町44"},"207":{"lat":37.802349,"lng":140.49324,"lvl":7,"addr":"福島県福島市瀬上町字寺前1-12"},"211":{"lat":37.396606,"lng":140.346115,"lvl":6,"addr":"福島県郡山市島2丁目99-5"},"216":{"lat":37.80468,"lng":140.926788,"lvl":7,"addr":"福島県相馬市沖ノ内1丁目2-5"},"222":{"lat":37.557381,"lng":139.828476,"lvl":7,"addr":"福島県会津坂下町小川原945"},"225":{"lat":37.608292,"lng":140.46138,"lvl":7,"addr":"福島県二本松市油井字濡石27-1"},"238":{"lat":37.639957,"lng":140.973007,"lvl":7,"addr":"福島県南相馬市原町区錦町1-43"},"242":{"lat":37.806469,"lng":140.931198,"lvl":7,"addr":"福島県相馬市沖ノ内2丁目16-6"},"251":{"lat":37.255859,"lng":140.347,"lvl":7,"addr":"福島県岩瀬郡鏡石町不時沼205"},"258":{"lat":37.039852,"lng":140.864944,"lvl":7,"addr":"福島県いわき市内郷綴町沼尻148-1"},"264":{"lat":37.637447,"lng":140.968796,"lvl":7,"addr":"福島県南相馬市原町区旭町2-52-1"},"269":{"lat":36.9711,"lng":140.958252,"lvl":7,"addr":"福島県いわき市江名字北町125番地"},"272":{"lat":37.408436,"lng":140.353867,"lvl":7,"addr":"福島県郡山市桑野4丁目6-2"},"281":{"lat":37.824604,"lng":140.557098,"lvl":7,"addr":"福島県伊達市保原町字栄町81-5"},"309":{"lat":37.790417,"lng":140.486465,"lvl":7,"addr":"福島県福島市鎌田字町東2番5"},"318":{"lat":37.007542,"lng":140.926819,"lvl":6,"addr":"福島県いわき市中央台高久2-25-1"},"320":{"lat":37.761406,"lng":140.439285,"lvl":7,"addr":"福島県福島市東中央2-2-2"},"321":{"lat":37.0373,"lng":140.849625,"lvl":7,"addr":"福島県いわき市内郷内町立町83-2"},"338":{"lat":37.854134,"lng":140.517044,"lvl":6,"addr":"福島県伊達郡桑折町南半田六角15-3"},"339":{"lat":37.395554,"lng":140.395157,"lvl":7,"addr":"福島県郡山市谷島町6-18"},"370":{"lat":37.387672,"lng":140.354935,"lvl":7,"addr":"福島県郡山市開成6-149-1"},"382":{"lat":37.771755,"lng":140.427811,"lvl":6,"addr":"福島県福島市八島田8-1"},"397":{"lat":37.630119,"lng":140.991394,"lvl":7,"addr":"福島県南相馬市原町区日の出町541-5"},"416":{"lat":37.751591,"lng":140.445648,"lvl":7,"addr":"福島県福島市八木田字井戸上89-5"},"435":{"lat":37.405975,"lng":140.361984,"lvl":8,"addr":"福島県郡山市朝日二丁目5番16号"},"437":{"lat":37.212055,"lng":140.407227,"lvl":6,"addr":"福島県石川郡玉川村小高字稲荷畷24-1"},"454":{"lat":36.915756,"lng":140.768372,"lvl":7,"addr":"福島県いわき市錦町鈴鹿24-1"},"462":{"lat":37.131172,"lng":140.348114,"lvl":5,"addr":"福島県西白河郡中島村大字二子塚字浦山32-16"},"471":{"lat":37.723297,"lng":140.459,"lvl":7,"addr":"福島県福島市伏拝字台田3-3"},"534":{"lat":36.953316,"lng":140.866058,"lvl":7,"addr":"福島県いわき市泉町滝尻字南坪53番地1"},"554":{"lat":37.848812,"lng":140.517899,"lvl":7,"addr":"福島県伊達郡桑折町北町50-1"},"598":{"lat":37.456837,"lng":139.894897,"lvl":5,"addr":"福島県大沼郡会津美里町字思堀25番地"},"615":{"lat":37.698322,"lng":140.470337,"lvl":7,"addr":"福島県福島市蓬莱町2丁目2-2"},"636":{"lat":37.589294,"lng":140.42218,"lvl":7,"addr":"福島県二本松市成田町1丁目815-3"},"642":{"lat":37.440224,"lng":140.645493,"lvl":7,"addr":"福島県田村市常葉町常葉字内町13"},"687":{"lat":37.732136,"lng":140.443649,"lvl":6,"addr":"福島県福島市大森堂ノ裏62"},"692":{"lat":37.49115,"lng":139.921494,"lvl":8,"addr":"福島県会津若松市湯川町1-54"},"702":{"lat":37.520973,"lng":140.397888,"lvl":6,"addr":"福島県本宮市本宮字舘町194"},"716":{"lat":37.492466,"lng":139.93988,"lvl":8,"addr":"福島県会津若松市徒之町4-18"},"734":{"lat":37.491539,"lng":139.921814,"lvl":8,"addr":"福島県会津若松市山鹿町4-20"},"794":{"lat":36.949757,"lng":140.909241,"lvl":7,"addr":"福島県いわき市小名浜字橋本3番地"},"798":{"lat":36.958645,"lng":140.880981,"lvl":7,"addr":"福島県いわき市小名浜南富岡富士前57"},"824":{"lat":37.780415,"lng":140.441635,"lvl":7,"addr":"福島県福島市南沢又字桜内33番地の3"},"848":{"lat":37.791618,"lng":140.483765,"lvl":7,"addr":"福島県福島市鎌田西5-1"},"849":{"lat":37.615948,"lng":140.454498,"lvl":6,"addr":"福島県二本松市油井字石倉76-3"},"854":{"lat":37.753853,"lng":140.46817,"lvl":8,"addr":"福島県福島市上町5番6号上町テラス1Ｆ"},"878":{"lat":37.132587,"lng":140.190521,"lvl":7,"addr":"福島県西白河郡西郷村大字米字中山前84-10"},"911":{"lat":37.413582,"lng":140.371948,"lvl":6,"addr":"福島県郡山市富久山町久保田字伊賀河原4"},"927":{"lat":37.625263,"lng":140.956161,"lvl":7,"addr":"福島県南相馬市原町区本陣前1丁目82"},"1002":{"lat":37.783516,"lng":140.486664,"lvl":7,"addr":"福島県福島市本内字東町5-3"},"1003":{"lat":37.399353,"lng":140.367142,"lvl":8,"addr":"福島県郡山市長者1-6-20"},"1034":{"lat":37.099396,"lng":140.984711,"lvl":7,"addr":"福島県いわき市四倉町東1丁目52"},"1042":{"lat":37.52121,"lng":139.944778,"lvl":7,"addr":"福島県会津若松市鶴賀町1-4"},"1123":{"lat":37.776871,"lng":140.447021,"lvl":7,"addr":"福島県福島市泉字泉川3-21"},"1243":{"lat":37.786789,"lng":140.438507,"lvl":7,"addr":"福島県福島市北沢又字成出24-5"},"1403":{"lat":37.494843,"lng":139.929703,"lvl":3,"addr":"福島県会津若松市会津若松市"},"1442":{"lat":37.147373,"lng":140.215958,"lvl":6,"addr":"福島県白河市豊地弥次郎34-1"},"1446":{"lat":37.487995,"lng":139.920227,"lvl":8,"addr":"福島県会津若松市湯川町4番10号"},"1467":{"lat":37.050121,"lng":140.881668,"lvl":7,"addr":"福島県いわき市小島町1-5-10"},"1515":{"lat":36.985275,"lng":140.895676,"lvl":7,"addr":"福島県いわき市小名浜林城塚前54-6"},"1544":{"lat":37.003819,"lng":140.838974,"lvl":7,"addr":"福島県いわき市常磐上湯長谷町上ノ台57"},"1550":{"lat":36.91769,"lng":140.799438,"lvl":7,"addr":"福島県いわき市植田町本町2-7-8"},"1599":{"lat":37.848465,"lng":140.602615,"lvl":7,"addr":"福島県伊達市梁川町広瀬町43番地"},"1712":{"lat":37.769192,"lng":140.43483,"lvl":6,"addr":"福島県福島市八島田字琵琶渕62-1"},"1751":{"lat":36.899307,"lng":140.784119,"lvl":7,"addr":"福島県いわき市錦町上中田8"},"1796":{"lat":37.796482,"lng":140.478546,"lvl":7,"addr":"福島県福島市鎌田字中江10-5"},"1860":{"lat":37.873169,"lng":140.542145,"lvl":7,"addr":"福島県伊達郡国見町大字藤田字中沢一10番地1"},"1869":{"lat":37.019272,"lng":140.874283,"lvl":6,"addr":"福島県いわき市草木台5-16-1"},"1874":{"lat":37.377029,"lng":140.343216,"lvl":7,"addr":"福島県郡山市久留米6-163-1"},"1971":{"lat":37.667519,"lng":139.872025,"lvl":7,"addr":"福島県喜多方市常盤台46番地1"},"1990":{"lat":37.735443,"lng":140.44989,"lvl":6,"addr":"福島県福島市大森字街道下71-4"},"2060":{"lat":37.769974,"lng":140.482452,"lvl":8,"addr":"福島県福島市八島町2-8"},"2304":{"lat":37.795383,"lng":140.481705,"lvl":7,"addr":"福島県福島市鎌田字卸町12-1"},"2477":{"lat":37.724228,"lng":140.45694,"lvl":7,"addr":"福島県福島市永井川字壇ノ腰6-1エトワ-ル南福島103号"},"2661":{"lat":37.004047,"lng":140.924484,"lvl":7,"addr":"福島県いわき市中央台鹿島3丁目53番地の7"},"2676":{"lat":37.047741,"lng":140.895508,"lvl":7,"addr":"福島県いわき市平谷川瀬二丁目11-10"},"2691":{"lat":37.37962,"lng":140.3862,"lvl":8,"addr":"福島県郡山市小原田三丁目3-14"},"2813":{"lat":37.751076,"lng":140.462082,"lvl":8,"addr":"福島県福島市早稲町4-16ラヴィバレ一番丁1階"},"3085":{"lat":36.911407,"lng":140.777939,"lvl":7,"addr":"福島県いわき市錦町花ノ井30-1"},"3091":{"lat":37.749439,"lng":140.474335,"lvl":7,"addr":"福島県福島市渡利字七社宮105-40"},"3143":{"lat":36.955559,"lng":140.849319,"lvl":7,"addr":"福島県いわき市泉玉露二丁目10番地の1ヨ-クタウン内"},"3170":{"lat":37.510166,"lng":139.950134,"lvl":8,"addr":"福島県会津若松市中島町6-1"},"3507":{"lat":37.05315,"lng":140.887589,"lvl":7,"addr":"福島県いわき市平字堂ノ前27-1"},"3551":{"lat":37.456177,"lng":139.836533,"lvl":6,"addr":"福島県大沼郡会津美里町高田甲2969-5"},"3686":{"lat":37.612114,"lng":140.463211,"lvl":7,"addr":"福島県二本松市油井字背戸谷地7-6"},"4073":{"lat":37.387821,"lng":140.351517,"lvl":6,"addr":"福島県郡山市開成6丁目192-1"},"4090":{"lat":37.142178,"lng":140.216797,"lvl":7,"addr":"福島県白河市六反山10-36"},"4228":{"lat":37.794174,"lng":140.436569,"lvl":7,"addr":"福島県福島市笹谷字中田4-17"},"4432":{"lat":37.05756,"lng":140.863159,"lvl":7,"addr":"福島県いわき市好間町下好間字一町坪55-3"},"4534":{"lat":37.488491,"lng":140.262421,"lvl":7,"addr":"福島県郡山市熱海町熱海5-199-6"},"4590":{"lat":37.142178,"lng":140.216797,"lvl":7,"addr":"福島県白河市六反山10-26"},"4600":{"lat":37.418903,"lng":140.359604,"lvl":7,"addr":"福島県郡山市名郷田2-48"},"4744":{"lat":37.63588,"lng":140.968689,"lvl":7,"addr":"福島県南相馬市原町区旭町3-24"},"4794":{"lat":37.753296,"lng":140.467911,"lvl":8,"addr":"福島県福島市大町7-11三共福島ビル1階"},"4808":{"lat":37.399452,"lng":140.337997,"lvl":6,"addr":"福島県郡山市堤1丁目83"},"4827":{"lat":37.650814,"lng":140.539886,"lvl":5,"addr":"福島県福島市飯野町字後川26-31"},"4938":{"lat":37.746571,"lng":140.482498,"lvl":7,"addr":"福島県福島市渡利字沼ノ町45番地"},"5067":{"lat":37.844994,"lng":140.589417,"lvl":6,"addr":"福島県伊達市梁川町字東土橋6-5"},"5076":{"lat":37.876266,"lng":140.54483,"lvl":7,"addr":"福島県伊達郡国見町藤田字北7-4"},"5136":{"lat":37.058167,"lng":140.892105,"lvl":7,"addr":"福島県いわき市平字田町38-16エスパルいわき1階"},"5165":{"lat":37.533623,"lng":139.952789,"lvl":7,"addr":"福島県会津若松市一箕町松長1丁目17-8"},"5610":{"lat":37.64613,"lng":139.877533,"lvl":6,"addr":"福島県喜多方市関柴町上高額字広面681-1"},"5611":{"lat":37.649139,"lng":139.880234,"lvl":5,"addr":"福島県喜多方市江中子4184-4"},"5612":{"lat":37.488232,"lng":139.939362,"lvl":8,"addr":"福島県会津若松市城東町6-19"},"5613":{"lat":37.478756,"lng":139.930771,"lvl":8,"addr":"福島県会津若松市天神町31-4"},"5614":{"lat":37.522747,"lng":139.873383,"lvl":7,"addr":"福島県会津若松市真宮新町北1丁目11-4"},"5615":{"lat":37.60294,"lng":140.456192,"lvl":7,"addr":"福島県二本松市油井字八軒町33"},"5616":{"lat":37.592442,"lng":140.434891,"lvl":7,"addr":"福島県二本松市本町1-55"},"5617":{"lat":37.637581,"lng":140.986389,"lvl":7,"addr":"福島県南相馬市原町区高見町2丁目122-1"},"5618":{"lat":37.724583,"lng":140.945953,"lvl":5,"addr":"福島県南相馬市鹿島区横手字榎内17"},"5619":{"lat":37.770039,"lng":140.481842,"lvl":8,"addr":"福島県福島市入江町15-12"},"5620":{"lat":37.759773,"lng":140.477463,"lvl":8,"addr":"福島県福島市桜木町1-21"},"5621":{"lat":37.760036,"lng":140.43988,"lvl":7,"addr":"福島県福島市南中央1丁目65-5ラフィ-ネ101"},"5622":{"lat":37.750267,"lng":140.44783,"lvl":7,"addr":"福島県福島市八木田字中島56-1"},"5623":{"lat":37.733578,"lng":140.465973,"lvl":7,"addr":"福島県福島市鳥谷野字宮畑65-2"},"5624":{"lat":37.80703,"lng":140.491425,"lvl":7,"addr":"福島県福島市瀬上町字幸町9-2"},"5625":{"lat":37.653454,"lng":140.487381,"lvl":7,"addr":"福島県福島市松川町沼袋字北原85-1"},"5626":{"lat":37.737431,"lng":140.459167,"lvl":6,"addr":"福島県福島市郷野目字仲12"},"5627":{"lat":37.728207,"lng":140.471786,"lvl":6,"addr":"福島県福島市黒岩字竹ノ内10番地1"},"5628":{"lat":37.76936,"lng":140.482971,"lvl":8,"addr":"福島県福島市八島町2-22"},"5629":{"lat":37.821125,"lng":140.559113,"lvl":7,"addr":"福島県伊達市保原町城ノ内61-1"},"5630":{"lat":37.864021,"lng":140.611954,"lvl":7,"addr":"福島県伊達市梁川町希望ヶ丘26-2"},"5631":{"lat":37.819447,"lng":140.518646,"lvl":6,"addr":"福島県伊達市箱崎字中21-6"},"5632":{"lat":37.037163,"lng":140.859024,"lvl":7,"addr":"福島県いわき市内郷綴町川原田130"},"5633":{"lat":36.959915,"lng":140.855042,"lvl":7,"addr":"福島県いわき市泉玉露五丁目6番地の30"},"5634":{"lat":37.127422,"lng":140.198456,"lvl":7,"addr":"福島県白河市立石142-1"},"5635":{"lat":37.284016,"lng":140.374359,"lvl":7,"addr":"福島県須賀川市大町284"},"5636":{"lat":37.393787,"lng":140.381882,"lvl":8,"addr":"福島県郡山市堂前町31-5"},"5637":{"lat":37.402657,"lng":140.386093,"lvl":8,"addr":"福島県郡山市大町2丁目15-2"},"5638":{"lat":37.39222,"lng":140.342484,"lvl":8,"addr":"福島県郡山市台新1丁目31-31"},"5639":{"lat":37.403099,"lng":140.394302,"lvl":8,"addr":"福島県郡山市向河原町4-40郡山駅東ショッピングセンタ-内"},"5640":{"lat":37.393669,"lng":140.38327,"lvl":8,"addr":"福島県郡山市本町1-14-19"},"5641":{"lat":37.406773,"lng":140.371338,"lvl":5,"addr":"福島県郡山市西丿内2丁目8番4号"},"5642":{"lat":37.385994,"lng":140.348648,"lvl":7,"addr":"福島県郡山市大槻町字天正坦24-9"},"7385":{"lat":37.297771,"lng":139.391418,"lvl":5,"addr":"福島県只見町大字長浜字唱平23-2"},"7386":{"lat":37.481945,"lng":139.907257,"lvl":5,"addr":"福島県会津若松市飯寺1丁目2番7号"},"7387":{"lat":37.85387,"lng":140.90419,"lvl":6,"addr":"福島県新地町駒ヶ嶺字原93-1"},"7388":{"lat":36.985516,"lng":140.859894,"lvl":7,"addr":"福島県いわき市常磐西郷町岩崎28-10"},"7389":{"lat":37.395279,"lng":140.384613,"lvl":8,"addr":"福島県郡山市中町14-19ＹＳビル1階"},"8328":{"lat":37.764999,"lng":140.477737,"lvl":8,"addr":"福島県福島市松浪町2-33"},"8418":{"lat":37.651646,"lng":139.88002,"lvl":7,"addr":"福島県喜多方市六枚長4221-9"},"8496":{"lat":37.790348,"lng":140.488434,"lvl":6,"addr":"福島県福島市鎌田字舟戸前9-1"},"8507":{"lat":37.011192,"lng":140.848877,"lvl":7,"addr":"福島県いわき市常磐湯本町台山55-4"},"8539":{"lat":37.546906,"lng":140.110291,"lvl":5,"addr":"福島県耶麻郡猪苗代町大字千代田字油地62-9"},"8635":{"lat":37.632072,"lng":140.980927,"lvl":7,"addr":"福島県南相馬市原町区日の出町155-2"},"8651":{"lat":37.648678,"lng":139.880585,"lvl":7,"addr":"福島県喜多方市字江中子4179-16"},"8654":{"lat":37.140865,"lng":140.445953,"lvl":7,"addr":"福島県石川郡石川町立ヶ岡50-11"},"8658":{"lat":37.604481,"lng":139.691406,"lvl":5,"addr":"福島県耶麻郡西会津町登世島田畑乙2042-65"},"8691":{"lat":37.640205,"lng":140.966812,"lvl":7,"addr":"福島県南相馬市原町区大町3丁目60"},"8703":{"lat":37.592442,"lng":140.434891,"lvl":7,"addr":"福島県二本松市本町1-48"},"8726":{"lat":37.057068,"lng":140.88974,"lvl":7,"addr":"福島県いわき市平字田町75-5"},"8739":{"lat":37.491241,"lng":139.92276,"lvl":8,"addr":"福島県会津若松市山鹿町4番8号"},"8741":{"lat":37.359531,"lng":140.362335,"lvl":7,"addr":"福島県郡山市安積町長久保1-4-4"},"8748":{"lat":37.423096,"lng":140.38121,"lvl":7,"addr":"福島県郡山市八山田7-161-B1F"},"8754":{"lat":37.801937,"lng":140.913803,"lvl":7,"addr":"福島県相馬市中村字桜ヶ丘212番1"},"8791":{"lat":37.42688,"lng":140.362183,"lvl":7,"addr":"福島県郡山市八山田西一丁目93番地"},"8817":{"lat":37.003197,"lng":140.924515,"lvl":7,"addr":"福島県いわき市中央台鹿島2-28-4"},"8820":{"lat":36.960587,"lng":140.409012,"lvl":7,"addr":"福島県東白川郡塙町大字塙字材木町11-1"},"8830":{"lat":36.945366,"lng":140.90213,"lvl":6,"addr":"福島県いわき市小名浜字辰巳町79番地"},"8879":{"lat":37.00853,"lng":140.847504,"lvl":7,"addr":"福島県いわき市常磐湯本町天王崎1-184"},"8880":{"lat":37.393261,"lng":140.363205,"lvl":8,"addr":"福島県郡山市鶴見坦一丁目9-10"},"8881":{"lat":37.188862,"lng":140.340073,"lvl":7,"addr":"福島県西白河郡矢吹町文京町227-36"},"8882":{"lat":37.788166,"lng":140.457825,"lvl":7,"addr":"福島県福島市南矢野目字西荒田50番地17"},"8935":{"lat":37.19352,"lng":139.744095,"lvl":5,"addr":"福島県南会津郡南会津町永田字下川原81-4"},"8940":{"lat":37.406616,"lng":140.34166,"lvl":7,"addr":"福島県郡山市大槻町字広町28-4"},"8952":{"lat":37.050594,"lng":140.898773,"lvl":7,"addr":"福島県いわき市平字三倉68-1"},"9092":{"lat":37.639198,"lng":140.980789,"lvl":7,"addr":"福島県南相馬市原町区桜井町2丁目379-1"},"9130":{"lat":37.747948,"lng":140.472427,"lvl":7,"addr":"福島県福島市渡利字舟場4-2"},"9180":{"lat":37.793411,"lng":140.443832,"lvl":7,"addr":"福島県福島市笹谷字塗谷地37-15"},"9641":{"lat":37.589294,"lng":140.42218,"lvl":7,"addr":"福島県二本松市成田町1-817-1-1"},"9736":{"lat":37.425426,"lng":140.365829,"lvl":6,"addr":"福島県郡山市富田東3丁目190番地"},"9768":{"lat":37.423096,"lng":140.38121,"lvl":7,"addr":"福島県郡山市八山田7丁目161-1F"},"9771":{"lat":37.682068,"lng":139.869354,"lvl":7,"addr":"福島県喜多方市松山町村松字北原3643-5"},"9775":{"lat":37.755123,"lng":140.449142,"lvl":8,"addr":"福島県福島市野田町1-13-54"},"9833":{"lat":37.724888,"lng":140.387787,"lvl":6,"addr":"福島県福島市荒井北3-2-36"},"5528":{"lat":36.379021,"lng":140.463425,"lvl":8,"addr":"茨城県水戸市泉町2-3-6"},"5529":{"lat":36.339176,"lng":140.47757,"lvl":7,"addr":"茨城県水戸市住吉町3-11"},"5530":{"lat":36.364529,"lng":140.48291,"lvl":8,"addr":"茨城県水戸市城南3-15-5"},"5531":{"lat":36.383011,"lng":140.412064,"lvl":7,"addr":"茨城県水戸市赤塚1-1870-4"},"5532":{"lat":36.377148,"lng":140.445206,"lvl":7,"addr":"茨城県水戸市見和1-336-2"},"5533":{"lat":36.331924,"lng":140.538956,"lvl":7,"addr":"茨城県水戸市大串町473-1"},"5720":{"lat":36.191917,"lng":139.71138,"lvl":7,"addr":"茨城県古河市古河381番地4"},"5721":{"lat":36.191551,"lng":139.7061,"lvl":8,"addr":"茨城県古河市本町2-11-15"},"5722":{"lat":36.188381,"lng":139.710602,"lvl":8,"addr":"茨城県古河市本町4丁目11-8"},"5723":{"lat":36.174503,"lng":139.732864,"lvl":7,"addr":"茨城県古河市下辺見2715"},"5724":{"lat":36.204205,"lng":139.718109,"lvl":8,"addr":"茨城県古河市三杉町2-4-5"},"5725":{"lat":36.193905,"lng":139.706573,"lvl":8,"addr":"茨城県古河市本町2-4-36"},"5726":{"lat":36.177311,"lng":139.71759,"lvl":5,"addr":"茨城県古河市大堤字鹿養307の一部"},"5727":{"lat":36.207138,"lng":139.719467,"lvl":8,"addr":"茨城県古河市三杉町2-28-1"},"5728":{"lat":36.195126,"lng":139.692993,"lvl":5,"addr":"茨城県古河市古河市本町1-10-6"},"5730":{"lat":36.176342,"lng":139.706421,"lvl":7,"addr":"茨城県古河市鴻巣956-1"},"5731":{"lat":36.164448,"lng":139.708435,"lvl":5,"addr":"茨城県古河市坂間字南谷71-1"},"5732":{"lat":36.201443,"lng":139.815231,"lvl":7,"addr":"茨城県古河市諸川1166"},"5733":{"lat":36.202839,"lng":139.818207,"lvl":7,"addr":"茨城県古河市諸川431-3"},"5734":{"lat":36.095871,"lng":139.738144,"lvl":7,"addr":"茨城県猿島郡五霞町原宿台4-13"},"5735":{"lat":36.118118,"lng":139.799179,"lvl":7,"addr":"茨城県猿島郡境町38-3"},"5736":{"lat":36.19717,"lng":139.719055,"lvl":8,"addr":"茨城県古河市旭町1-2-17"},"5737":{"lat":36.167435,"lng":139.770966,"lvl":7,"addr":"茨城県古河市下大野2008"},"5738":{"lat":36.164124,"lng":139.760468,"lvl":7,"addr":"茨城県古河市駒羽根830-2"},"5739":{"lat":36.174484,"lng":139.757736,"lvl":7,"addr":"茨城県古河市駒羽根113-2"},"5740":{"lat":36.206394,"lng":139.746033,"lvl":7,"addr":"茨城県古河市東牛谷520-4"},"5757":{"lat":36.149738,"lng":140.514557,"lvl":7,"addr":"茨城県鉾田市新鉾田西2-6-1"},"5759":{"lat":36.069485,"lng":140.4617,"lvl":7,"addr":"茨城県行方市小幡1101-41"},"5760":{"lat":36.119228,"lng":140.57428,"lvl":7,"addr":"茨城県鉾田市汲上3128-2"},"5761":{"lat":36.161175,"lng":140.520325,"lvl":7,"addr":"茨城県鉾田市鉾田1259-3"},"5762":{"lat":36.216846,"lng":140.476578,"lvl":7,"addr":"茨城県鉾田市舟木171-1"},"5763":{"lat":36.201359,"lng":140.549789,"lvl":7,"addr":"茨城県鉾田市樅山576-143"},"5764":{"lat":36.396614,"lng":140.534683,"lvl":3,"addr":"茨城県ひたちなか市221-6"},"5765":{"lat":36.408279,"lng":140.53244,"lvl":8,"addr":"茨城県ひたちなか市外野二丁目12番4号"},"5766":{"lat":36.409595,"lng":140.527359,"lvl":7,"addr":"茨城県ひたちなか市堂端2-1-4"},"5767":{"lat":36.394768,"lng":140.534149,"lvl":8,"addr":"茨城県ひたちなか市東石川3-21-27"},"5768":{"lat":36.458721,"lng":140.575333,"lvl":7,"addr":"茨城県那珂郡東海村村松2108番地ピアシティ内"},"5769":{"lat":36.323402,"lng":140.409149,"lvl":5,"addr":"茨城県東茨城郡茨城町桜の郷3294-6"},"5770":{"lat":36.367767,"lng":140.49408,"lvl":8,"addr":"茨城県水戸市東台1-10-13"},"5771":{"lat":36.382183,"lng":140.448807,"lvl":8,"addr":"茨城県水戸市大工町3丁目10-14"},"5772":{"lat":36.343559,"lng":140.503479,"lvl":7,"addr":"茨城県水戸市百合が丘町8番3"},"5773":{"lat":36.337051,"lng":140.490952,"lvl":7,"addr":"茨城県水戸市けやき台2丁目18番地の2"},"5774":{"lat":36.328655,"lng":140.437851,"lvl":7,"addr":"茨城県水戸市平須町1820-61"},"5775":{"lat":36.310207,"lng":140.473938,"lvl":7,"addr":"茨城県東茨城郡茨城町上石崎4698-75"},"5776":{"lat":36.352097,"lng":140.493713,"lvl":7,"addr":"茨城県水戸市酒門町255-2"},"5777":{"lat":36.360249,"lng":140.40509,"lvl":5,"addr":"茨城県水戸市河和田町長谷原4405-106"},"5778":{"lat":36.391071,"lng":140.435928,"lvl":8,"addr":"茨城県水戸市新原1-17-4"},"5779":{"lat":36.374561,"lng":140.358841,"lvl":6,"addr":"茨城県水戸市内原2丁目1番地"},"5780":{"lat":36.347507,"lng":140.584991,"lvl":7,"addr":"茨城県ひたちなか市田中後7-2"},"5781":{"lat":36.319382,"lng":140.570236,"lvl":7,"addr":"茨城県東茨城郡大洗町磯浜町3465-1"},"5782":{"lat":36.316368,"lng":140.563766,"lvl":7,"addr":"茨城県東茨城郡大洗町桜道267"},"5783":{"lat":36.428246,"lng":140.536682,"lvl":7,"addr":"茨城県ひたちなか市高場1-22-6"},"5784":{"lat":36.447456,"lng":140.501999,"lvl":7,"addr":"茨城県那珂市竹ノ内3-7-3"},"5785":{"lat":36.402374,"lng":140.539062,"lvl":7,"addr":"茨城県ひたちなか市東石川3379番地15"},"5786":{"lat":36.394527,"lng":140.52597,"lvl":8,"addr":"茨城県ひたちなか市勝田中央4-2大谷ビル1Ｆ"},"5787":{"lat":36.462715,"lng":140.555878,"lvl":7,"addr":"茨城県那珂郡東海村舟石川689-9"},"5788":{"lat":36.463299,"lng":140.566833,"lvl":7,"addr":"茨城県那珂郡東海村舟石川駅東4-1-1"},"5789":{"lat":36.37154,"lng":140.487274,"lvl":8,"addr":"茨城県水戸市城東1-9-11"},"5790":{"lat":36.37381,"lng":140.433182,"lvl":7,"addr":"茨城県水戸市見川2-108-26ア-バンテラス一周館Ａ201-4"},"5791":{"lat":36.373703,"lng":140.471436,"lvl":8,"addr":"茨城県水戸市宮町3丁目2-15"},"5793":{"lat":36.410496,"lng":140.485306,"lvl":7,"addr":"茨城県那珂市中台706-21"},"5794":{"lat":36.494694,"lng":140.447586,"lvl":7,"addr":"茨城県那珂市瓜連748-3"},"5795":{"lat":36.381535,"lng":140.417511,"lvl":7,"addr":"茨城県水戸市姫子2丁目30番"},"5796":{"lat":36.346767,"lng":140.492538,"lvl":5,"addr":"茨城県水戸市酒門町字浜井場302-1"},"5797":{"lat":36.363911,"lng":140.461075,"lvl":7,"addr":"茨城県水戸市千波町277-6"},"5798":{"lat":36.358261,"lng":140.457855,"lvl":5,"addr":"茨城県水戸市千波町北葉山1763-1"},"5799":{"lat":36.468723,"lng":140.566452,"lvl":8,"addr":"茨城県那珂郡東海村舟石川駅西2-9-12"},"5800":{"lat":36.370468,"lng":140.487488,"lvl":8,"addr":"茨城県水戸市城東1-3-8イソラヴェラ1-Ｂ"},"5801":{"lat":36.377769,"lng":140.428192,"lvl":7,"addr":"茨城県水戸市見和二丁目548番地の1"},"5802":{"lat":36.374447,"lng":140.470032,"lvl":8,"addr":"茨城県水戸市梅香1-2-50水戸ビル1階"},"5803":{"lat":36.40456,"lng":140.424591,"lvl":7,"addr":"茨城県水戸市堀町878-3"},"5804":{"lat":36.348675,"lng":140.478043,"lvl":7,"addr":"茨城県水戸市元吉田町1570-8"},"5805":{"lat":36.397324,"lng":140.396484,"lvl":7,"addr":"茨城県水戸市開江町224-4"},"5806":{"lat":36.395733,"lng":140.400879,"lvl":7,"addr":"茨城県水戸市双葉台4-173-14"},"5807":{"lat":36.708263,"lng":140.708694,"lvl":7,"addr":"茨城県高萩市安良川214-1"},"5808":{"lat":36.792107,"lng":140.740067,"lvl":7,"addr":"茨城県北茨城市磯原町磯原3-20"},"5809":{"lat":36.84338,"lng":140.780807,"lvl":7,"addr":"茨城県北茨城市大津町北町4丁目5-15-1"},"5810":{"lat":36.783066,"lng":140.732971,"lvl":5,"addr":"茨城県北茨城市中郷町上桜井字細谷2830"},"5811":{"lat":36.777287,"lng":140.733795,"lvl":7,"addr":"茨城県北茨城市中郷町上桜井1586"},"5812":{"lat":36.777363,"lng":140.726273,"lvl":7,"addr":"茨城県北茨城市中郷町上桜井2535"},"5813":{"lat":36.707096,"lng":140.709091,"lvl":7,"addr":"茨城県高萩市安良川189-1"},"5814":{"lat":36.349419,"lng":140.475174,"lvl":5,"addr":"茨城県水戸市元吉田町字東組378-1"},"5816":{"lat":36.456196,"lng":140.496246,"lvl":7,"addr":"茨城県那珂市菅谷663-32"},"5817":{"lat":36.447147,"lng":140.500107,"lvl":7,"addr":"茨城県那珂市竹ノ内2-14-8"},"5818":{"lat":36.347919,"lng":140.586227,"lvl":7,"addr":"茨城県ひたちなか市幸町14-1"},"5819":{"lat":36.411598,"lng":140.484833,"lvl":7,"addr":"茨城県那珂市中台707-20"},"5820":{"lat":36.398067,"lng":140.572067,"lvl":5,"addr":"茨城県ひたちなか市馬渡向野2911-18"},"5821":{"lat":36.423645,"lng":140.516006,"lvl":7,"addr":"茨城県ひたちなか市田彦1003-5"},"5822":{"lat":36.398617,"lng":140.397263,"lvl":7,"addr":"茨城県水戸市開江町289-2"},"5823":{"lat":36.40934,"lng":140.504379,"lvl":7,"addr":"茨城県ひたちなか市津田東2-7-15"},"5824":{"lat":36.388062,"lng":140.545319,"lvl":8,"addr":"茨城県ひたちなか市松戸町三丁目1番30号"},"5825":{"lat":36.397076,"lng":140.561142,"lvl":7,"addr":"茨城県ひたちなか市馬渡3840-7"},"5826":{"lat":36.679806,"lng":140.706543,"lvl":5,"addr":"茨城県日立市十王町伊師3448-1"},"5827":{"lat":36.534309,"lng":140.616043,"lvl":7,"addr":"茨城県日立市大沼町3-4-10"},"5828":{"lat":36.592823,"lng":140.658264,"lvl":7,"addr":"茨城県日立市幸町1-7-7ニュ-クリニックス日立101号"},"5829":{"lat":36.603802,"lng":140.665253,"lvl":7,"addr":"茨城県日立市本宮町4-12-1"},"5830":{"lat":36.539429,"lng":140.623642,"lvl":7,"addr":"茨城県日立市金沢町1-14-6"},"5831":{"lat":36.541264,"lng":140.621811,"lvl":7,"addr":"茨城県日立市金沢町3-20-2"},"5832":{"lat":36.602192,"lng":140.662552,"lvl":7,"addr":"茨城県日立市本宮町2-7-2"},"5833":{"lat":36.529076,"lng":140.623016,"lvl":7,"addr":"茨城県日立市東大沼町3-15-19"},"5834":{"lat":36.627579,"lng":140.672836,"lvl":7,"addr":"茨城県日立市田尻町3-23-5"},"5835":{"lat":36.634556,"lng":140.674194,"lvl":7,"addr":"茨城県日立市日高町1-30-7"},"5836":{"lat":36.511597,"lng":140.626328,"lvl":7,"addr":"茨城県日立市大みか町4-4-7"},"5837":{"lat":36.546341,"lng":140.47789,"lvl":5,"addr":"茨城県常陸太田市久米町173-1"},"5839":{"lat":36.538227,"lng":140.53093,"lvl":3,"addr":"茨城県常陸太田市1727-1"},"5840":{"lat":36.535538,"lng":140.527039,"lvl":7,"addr":"茨城県常陸太田市木崎二町1806-1"},"5841":{"lat":36.54533,"lng":140.526657,"lvl":5,"addr":"茨城県常陸太田市中城町2992-1"},"5842":{"lat":36.655617,"lng":140.691498,"lvl":7,"addr":"茨城県日立市折笠町564-2"},"5843":{"lat":36.540684,"lng":140.406143,"lvl":5,"addr":"茨城県常陸大宮市石沢1686-1"},"5844":{"lat":36.561836,"lng":140.398193,"lvl":5,"addr":"茨城県常陸大宮市田子町3034-4"},"5845":{"lat":36.550957,"lng":140.420563,"lvl":5,"addr":"茨城県常陸大宮市下町3986-5"},"5846":{"lat":36.626686,"lng":140.383957,"lvl":5,"addr":"茨城県常陸大宮市山方945-1"},"5847":{"lat":36.544701,"lng":140.409073,"lvl":5,"addr":"茨城県常陸大宮市中富町1004-1"},"5848":{"lat":36.301044,"lng":139.977631,"lvl":7,"addr":"茨城県筑西市乙916"},"5849":{"lat":36.292149,"lng":139.870377,"lvl":7,"addr":"茨城県結城市新福寺2-21-6"},"5850":{"lat":36.331364,"lng":140.038391,"lvl":7,"addr":"茨城県筑西市新治1996-26"},"5851":{"lat":36.296925,"lng":139.978058,"lvl":7,"addr":"茨城県筑西市二木成943"},"5852":{"lat":36.275669,"lng":139.970245,"lvl":7,"addr":"茨城県筑西市野殿1457"},"5853":{"lat":36.183174,"lng":139.97728,"lvl":7,"addr":"茨城県下妻市古沢563"},"5854":{"lat":36.190086,"lng":139.98941,"lvl":7,"addr":"茨城県下妻市堀篭972-1"},"5855":{"lat":36.19532,"lng":139.979385,"lvl":7,"addr":"茨城県下妻市大串120-15"},"5856":{"lat":36.167042,"lng":139.967911,"lvl":7,"addr":"茨城県下妻市田下593"},"5857":{"lat":36.292873,"lng":139.871658,"lvl":7,"addr":"茨城県結城市中央町1-5-20"},"5858":{"lat":36.305264,"lng":139.877151,"lvl":3,"addr":"茨城県結城市下り松4-1-4"},"5859":{"lat":36.303284,"lng":139.864502,"lvl":7,"addr":"茨城県結城市結城10609-1"},"5861":{"lat":36.24918,"lng":139.934906,"lvl":7,"addr":"茨城県筑西市舟生1059"},"5862":{"lat":36.251068,"lng":139.926392,"lvl":7,"addr":"茨城県筑西市関本下1940-3"},"5863":{"lat":36.179729,"lng":139.957077,"lvl":5,"addr":"茨城県下妻市下妻丁146-5"},"5864":{"lat":36.324883,"lng":139.97348,"lvl":5,"addr":"茨城県筑西市八丁台62番地"},"5865":{"lat":36.181404,"lng":139.891312,"lvl":7,"addr":"茨城県結城郡八千代町菅谷1170-1"},"5866":{"lat":36.19175,"lng":140.008728,"lvl":5,"addr":"茨城県下妻市高道祖1111-3"},"5867":{"lat":36.300617,"lng":139.991089,"lvl":7,"addr":"茨城県筑西市島588番地"},"5868":{"lat":36.248447,"lng":140.037399,"lvl":5,"addr":"茨城県筑西市海老ヶ島734-2"},"5869":{"lat":36.328419,"lng":140.016556,"lvl":7,"addr":"茨城県筑西市門井1676-23"},"5870":{"lat":36.384659,"lng":140.244736,"lvl":7,"addr":"茨城県笠間市石井2104"},"5871":{"lat":36.37878,"lng":140.261719,"lvl":5,"addr":"茨城県笠間市笠間稲荷町99番地7"},"5872":{"lat":36.387184,"lng":140.256271,"lvl":7,"addr":"茨城県笠間市笠間1158-4"},"5873":{"lat":36.346252,"lng":140.302094,"lvl":6,"addr":"茨城県笠間市八雲2-1058-208"},"5874":{"lat":36.364262,"lng":140.113449,"lvl":7,"addr":"茨城県桜川市富士見台1-20"},"5875":{"lat":36.349804,"lng":140.313324,"lvl":8,"addr":"茨城県笠間市東平3-1-7"},"5876":{"lat":36.33382,"lng":140.309799,"lvl":7,"addr":"茨城県笠間市旭町653-8"},"5877":{"lat":36.277908,"lng":140.284531,"lvl":5,"addr":"茨城県笠間市市下市毛字稲荷林263"},"5878":{"lat":36.349327,"lng":140.318634,"lvl":7,"addr":"茨城県笠間市鯉淵6526-236"},"5879":{"lat":35.995419,"lng":140.039886,"lvl":7,"addr":"茨城県つくばみらい市陽光台1-14-1"},"5880":{"lat":35.955551,"lng":139.99263,"lvl":6,"addr":"茨城県守谷市ひがし野4-1-9"},"5881":{"lat":35.95282,"lng":139.999344,"lvl":7,"addr":"茨城県守谷市ひがし野2-2-5"},"5882":{"lat":35.949139,"lng":139.992126,"lvl":7,"addr":"茨城県守谷市中央4-12-11Ｆ-Ｂ"},"5883":{"lat":36.002594,"lng":140.0327,"lvl":7,"addr":"茨城県つくばみらい市富士見ヶ丘1丁目28番地4"},"5884":{"lat":36.025478,"lng":139.999268,"lvl":7,"addr":"茨城県常総市新井木町122-10"},"5886":{"lat":36.112598,"lng":139.950638,"lvl":7,"addr":"茨城県常総市向石下857-2"},"5887":{"lat":36.048931,"lng":139.886307,"lvl":7,"addr":"茨城県坂東市岩井3322-2"},"5888":{"lat":36.051838,"lng":139.887024,"lvl":7,"addr":"茨城県坂東市岩井2746"},"5890":{"lat":36.110329,"lng":139.978409,"lvl":7,"addr":"茨城県常総市新石下3930-1"},"5891":{"lat":36.098587,"lng":139.896088,"lvl":7,"addr":"茨城県坂東市沓掛842"},"5892":{"lat":35.932709,"lng":139.997894,"lvl":7,"addr":"茨城県守谷市けやき台2丁目11-6"},"5893":{"lat":35.954327,"lng":140.047409,"lvl":5,"addr":"茨城県つくばみらい市谷井田字北耕地1332"},"5894":{"lat":35.955406,"lng":139.996964,"lvl":7,"addr":"茨城県守谷市松並1580-2"},"5895":{"lat":35.945271,"lng":139.998795,"lvl":7,"addr":"茨城県守谷市本町659"},"5896":{"lat":35.953972,"lng":139.979111,"lvl":7,"addr":"茨城県守谷市立沢981-7"},"5897":{"lat":35.94392,"lng":140.155701,"lvl":7,"addr":"茨城県龍ケ崎市長山3丁目2-1"},"5898":{"lat":35.9338,"lng":140.203064,"lvl":7,"addr":"茨城県龍ケ崎市中里1丁目1"},"5899":{"lat":35.913658,"lng":140.185791,"lvl":7,"addr":"茨城県龍ケ崎市馴馬町2957-1"},"5900":{"lat":35.928982,"lng":140.145035,"lvl":7,"addr":"茨城県龍ヶ崎市佐貫町1-1"},"5901":{"lat":35.903275,"lng":140.177032,"lvl":7,"addr":"茨城県龍ケ崎市六斗蒔8655"},"5903":{"lat":35.915806,"lng":140.178619,"lvl":7,"addr":"茨城県龍ケ崎市馴馬町2677-4"},"5904":{"lat":35.919525,"lng":140.011368,"lvl":8,"addr":"茨城県取手市戸頭1-9-18"},"5905":{"lat":35.92981,"lng":140.009949,"lvl":8,"addr":"茨城県取手市戸頭9-21-23"},"5906":{"lat":35.910294,"lng":140.069321,"lvl":8,"addr":"茨城県取手市井野台5-1-21"},"5907":{"lat":35.898087,"lng":140.057938,"lvl":8,"addr":"茨城県取手市新町3丁目9番41号"},"5908":{"lat":35.892838,"lng":140.079697,"lvl":7,"addr":"茨城県取手市青柳356-51Ｆ"},"5909":{"lat":35.916725,"lng":140.118958,"lvl":6,"addr":"茨城県取手市藤代南2-14-1"},"5910":{"lat":35.922215,"lng":140.055771,"lvl":7,"addr":"茨城県取手市岡1462-5"},"5912":{"lat":36.078407,"lng":140.204941,"lvl":8,"addr":"茨城県土浦市大和町9-2ウララ2ビル2Ｆ"},"5913":{"lat":36.076813,"lng":140.18602,"lvl":8,"addr":"茨城県土浦市下高津3-7-46"},"5914":{"lat":36.078407,"lng":140.204941,"lvl":8,"addr":"茨城県土浦市大和町9-2"},"5915":{"lat":36.072063,"lng":140.204025,"lvl":8,"addr":"茨城県土浦市小松1-4-27"},"5916":{"lat":36.087746,"lng":140.187973,"lvl":8,"addr":"茨城県土浦市田中2丁目10番35号"},"5917":{"lat":36.119881,"lng":140.175232,"lvl":7,"addr":"茨城県土浦市大畑1611"},"5918":{"lat":36.099682,"lng":140.072235,"lvl":5,"addr":"茨城県つくば市遠東1111-21"},"5919":{"lat":36.025429,"lng":140.157135,"lvl":5,"addr":"茨城県土浦市荒川沖字川向102-4"},"5920":{"lat":36.024475,"lng":140.174377,"lvl":7,"addr":"茨城県阿見町本郷3-3-1"},"5921":{"lat":36.115108,"lng":140.179413,"lvl":7,"addr":"茨城県土浦市下坂田2012-6"},"5922":{"lat":35.989643,"lng":140.156113,"lvl":7,"addr":"茨城県牛久市上柏田2丁目33番地6"},"5923":{"lat":35.964466,"lng":140.155807,"lvl":7,"addr":"茨城県牛久市神谷5-1-1"},"5924":{"lat":36.093906,"lng":140.327621,"lvl":5,"addr":"茨城県かすみがうら市大和田592-45"},"5925":{"lat":35.976276,"lng":140.322769,"lvl":7,"addr":"茨城県稲敷市佐倉3251-8"},"5926":{"lat":36.121372,"lng":140.240219,"lvl":8,"addr":"茨城県土浦市神立中央3-2-27"},"5927":{"lat":36.071869,"lng":140.19606,"lvl":3,"addr":"茨城県土浦文京町10-22"},"5928":{"lat":36.089291,"lng":140.209518,"lvl":8,"addr":"茨城県土浦市真鍋新町11-3"},"5929":{"lat":36.091717,"lng":140.2034,"lvl":8,"addr":"茨城県土浦市真鍋3-5-25"},"5930":{"lat":36.064205,"lng":140.183121,"lvl":7,"addr":"茨城県土浦市永国1044-1"},"5931":{"lat":36.08086,"lng":140.17955,"lvl":7,"addr":"茨城県土浦市上高津367"},"5932":{"lat":36.038582,"lng":140.084076,"lvl":7,"addr":"茨城県つくば市台町2丁目3-10"},"5933":{"lat":36.034595,"lng":140.132721,"lvl":7,"addr":"茨城県つくば市稲岡66-1イオンつくば店1階"},"5934":{"lat":36.034595,"lng":140.132721,"lvl":7,"addr":"茨城県つくば市稲岡66-1イオンモ-ルつくば1Ｆ"},"5936":{"lat":36.028038,"lng":140.054565,"lvl":7,"addr":"茨城県つくば市みどりの1丁目32-1"},"5937":{"lat":36.031448,"lng":140.172653,"lvl":7,"addr":"茨城県稲敷郡阿見町うずら野1-19-2"},"5939":{"lat":35.983376,"lng":140.158005,"lvl":7,"addr":"茨城県牛久市上柏田4-56-4"},"5940":{"lat":36.075298,"lng":140.256577,"lvl":5,"addr":"茨城県土浦市沖宿町八幡前2762-3"},"5941":{"lat":35.991066,"lng":140.225403,"lvl":5,"addr":"茨城県稲敷郡阿見町吉原2672番11"},"5942":{"lat":36.100632,"lng":140.046829,"lvl":7,"addr":"茨城県つくば市豊里の杜2-1-1"},"5943":{"lat":36.060356,"lng":140.051682,"lvl":5,"addr":"茨城県つくば市島名福田坪土地区画整理地Ｂ48街区"},"5944":{"lat":36.084538,"lng":140.097336,"lvl":7,"addr":"茨城県つくば市研究学園7-20-5"},"5945":{"lat":36.099598,"lng":140.07901,"lvl":7,"addr":"茨城県つくば市学園の森2丁目33番地"},"5946":{"lat":36.075909,"lng":140.115143,"lvl":7,"addr":"茨城県つくば市東新井25-2"},"5947":{"lat":36.065254,"lng":140.116501,"lvl":7,"addr":"茨城県つくば市二の宮3丁目15-10"},"5948":{"lat":36.065369,"lng":140.14978,"lvl":7,"addr":"茨城県つくば市並木3-15-1"},"5949":{"lat":36.062737,"lng":140.117889,"lvl":7,"addr":"茨城県つくば市二の宮3丁目24番地20"},"5950":{"lat":36.121933,"lng":140.105087,"lvl":7,"addr":"茨城県つくば市栗原3565-4"},"5951":{"lat":36.17561,"lng":140.094223,"lvl":5,"addr":"茨城県つくば市北条亀井5209-5"},"5952":{"lat":36.176723,"lng":140.086304,"lvl":7,"addr":"茨城県つくば市北条5117"},"5953":{"lat":36.091892,"lng":140.098419,"lvl":7,"addr":"茨城県つくば市春日3-11-7"},"5954":{"lat":36.083351,"lng":140.080811,"lvl":7,"addr":"茨城県つくば市研究学園5-5-1"},"5955":{"lat":36.051918,"lng":140.136902,"lvl":7,"addr":"茨城県つくば市東2丁目9-1"},"5956":{"lat":36.111839,"lng":140.112457,"lvl":7,"addr":"茨城県つくば市桜1-14-1"},"5957":{"lat":36.137913,"lng":140.058762,"lvl":7,"addr":"茨城県つくば市篠崎503-2"},"5958":{"lat":36.147717,"lng":140.014465,"lvl":7,"addr":"茨城県つくば市吉沼1209-4"},"5959":{"lat":36.181534,"lng":140.042526,"lvl":7,"addr":"茨城県つくば市作谷1115-4"},"5961":{"lat":35.999794,"lng":140.164841,"lvl":7,"addr":"茨城県牛久市下根町773-6"},"5962":{"lat":35.983288,"lng":140.158691,"lvl":7,"addr":"茨城県牛久市上柏田4-55-12"},"5963":{"lat":36.004498,"lng":140.118179,"lvl":7,"addr":"茨城県つくば市高崎1371-6"},"5964":{"lat":36.092152,"lng":140.106537,"lvl":7,"addr":"茨城県つくば市天久保1-3-1"},"5965":{"lat":36.072582,"lng":140.088776,"lvl":5,"addr":"茨城県つくば市西大橋174-1"},"5966":{"lat":36.115273,"lng":140.114059,"lvl":7,"addr":"茨城県つくば市桜3-20-3"},"5967":{"lat":35.987083,"lng":140.116318,"lvl":7,"addr":"茨城県つくば市小茎288"},"5968":{"lat":36.143028,"lng":140.012085,"lvl":7,"addr":"茨城県つくば市吉沼2387-1"},"5969":{"lat":35.989334,"lng":140.141296,"lvl":7,"addr":"茨城県牛久市猪子町995-18"},"5970":{"lat":36.036098,"lng":140.14447,"lvl":7,"addr":"茨城県土浦市乙戸11-7"},"5971":{"lat":36.080414,"lng":140.099457,"lvl":5,"addr":"茨城県つくば市苅間篠前1620-8"},"5972":{"lat":36.003063,"lng":140.317871,"lvl":7,"addr":"茨城県稲敷郡美浦村大谷1216-1"},"5973":{"lat":36.034828,"lng":140.20105,"lvl":5,"addr":"茨城県稲敷郡阿見町阿見2742-2"},"5974":{"lat":36.021339,"lng":140.220703,"lvl":7,"addr":"茨城県阿見町若栗1339-6"},"5975":{"lat":36.025902,"lng":140.21463,"lvl":8,"addr":"茨城県稲敷郡阿見町中央1-13-22"},"5976":{"lat":36.040264,"lng":140.219452,"lvl":7,"addr":"茨城県稲敷郡阿見町岡崎3-8-1"},"5977":{"lat":36.076355,"lng":140.068039,"lvl":5,"addr":"茨城県つくば市面野井1004-4"},"5978":{"lat":36.003559,"lng":140.172012,"lvl":7,"addr":"茨城県牛久市ひたち野東3-2-2"},"5979":{"lat":36.026409,"lng":140.078903,"lvl":5,"addr":"茨城県つくば市谷田部872番地"},"5980":{"lat":36.084351,"lng":140.184845,"lvl":6,"addr":"茨城県土浦市田中3-1762-2"},"5981":{"lat":35.981949,"lng":140.152466,"lvl":7,"addr":"茨城県牛久市栄町4-2"},"5983":{"lat":36.186199,"lng":140.299011,"lvl":8,"addr":"茨城県石岡市東石岡4-11-27"},"5984":{"lat":36.248676,"lng":140.299698,"lvl":7,"addr":"茨城県小美玉市羽鳥2908-3"},"5985":{"lat":36.191841,"lng":140.276413,"lvl":8,"addr":"茨城県石岡市府中1-6-10"},"5986":{"lat":36.202217,"lng":140.286346,"lvl":7,"addr":"茨城県石岡市石岡2280-2"},"5987":{"lat":36.204285,"lng":140.258438,"lvl":8,"addr":"茨城県石岡市鹿の子2-9-2"},"5988":{"lat":36.171162,"lng":140.349594,"lvl":7,"addr":"茨城県小美玉市田木谷212-1"},"5989":{"lat":36.231216,"lng":140.21051,"lvl":7,"addr":"茨城県石岡市下林278"},"5990":{"lat":36.122452,"lng":140.429932,"lvl":7,"addr":"茨城県行方市若海793-7"},"5991":{"lat":36.189018,"lng":140.291794,"lvl":8,"addr":"茨城県石岡市東石岡5-2-36"},"5992":{"lat":35.950127,"lng":140.558044,"lvl":7,"addr":"茨城県潮来市辻416-1"},"5993":{"lat":35.956898,"lng":140.583038,"lvl":7,"addr":"茨城県潮来市新宮南1437-1"},"5994":{"lat":35.990025,"lng":140.48735,"lvl":7,"addr":"茨城県行方市麻生1164-4"},"5995":{"lat":35.938328,"lng":140.394104,"lvl":5,"addr":"茨城県稲敷市釜井435-1"},"5996":{"lat":35.947357,"lng":140.563934,"lvl":7,"addr":"茨城県潮来市須賀南289"},"5997":{"lat":36.018719,"lng":140.500687,"lvl":7,"addr":"茨城県行方市麻生3289-46"},"5998":{"lat":35.964256,"lng":140.637146,"lvl":7,"addr":"茨城県鹿嶋市宮中1995-68"},"5999":{"lat":35.961769,"lng":140.66127,"lvl":7,"addr":"茨城県鹿嶋市平井1345-7"},"6000":{"lat":35.971119,"lng":140.643753,"lvl":7,"addr":"茨城県鹿嶋市宮中2062-9"},"6001":{"lat":35.959869,"lng":140.642136,"lvl":7,"addr":"茨城県鹿嶋市宮中297-12"},"6002":{"lat":35.975166,"lng":140.622726,"lvl":7,"addr":"茨城県鹿嶋市緑ヶ丘4-6-7"},"6003":{"lat":35.977154,"lng":140.632233,"lvl":7,"addr":"茨城県鹿嶋市厨3-10-1"},"6004":{"lat":35.966831,"lng":140.658936,"lvl":7,"addr":"茨城県鹿嶋市旭ヶ丘2-8-1"},"6005":{"lat":35.912273,"lng":140.638824,"lvl":7,"addr":"茨城県神栖市平泉1-4"},"6006":{"lat":35.925224,"lng":140.639969,"lvl":8,"addr":"茨城県神栖市堀割3丁目4-3"},"6007":{"lat":35.902164,"lng":140.638977,"lvl":7,"addr":"茨城県神栖市平泉東1-64-204"},"6008":{"lat":35.902859,"lng":140.621506,"lvl":7,"addr":"茨城県神栖市賀2108-205"},"6010":{"lat":35.974564,"lng":140.640121,"lvl":5,"addr":"茨城県鹿嶋市宮中字東山289-1"},"6011":{"lat":35.889603,"lng":140.63707,"lvl":8,"addr":"茨城県神栖市大野原中央3-5-1"},"6012":{"lat":35.89777,"lng":140.644577,"lvl":8,"addr":"茨城県神栖市神栖1-5-6"},"6014":{"lat":35.874096,"lng":140.703888,"lvl":8,"addr":"茨城県神栖市知手中央6-6-19"},"6015":{"lat":35.902859,"lng":140.621506,"lvl":7,"addr":"茨城県神栖市賀2108-156"},"6016":{"lat":35.879562,"lng":140.705612,"lvl":8,"addr":"茨城県神栖市知手中央1丁目15-36"},"6233":{"lat":35.866753,"lng":140.709656,"lvl":7,"addr":"茨城県神栖市砂山1014-35"},"6234":{"lat":35.836029,"lng":140.73584,"lvl":7,"addr":"茨城県神栖市若松中央2丁目10番"},"6235":{"lat":35.780144,"lng":140.772446,"lvl":7,"addr":"茨城県神栖市矢田部7803-51"},"6236":{"lat":35.750046,"lng":140.824554,"lvl":7,"addr":"茨城県神栖市波崎8519"},"7349":{"lat":36.041855,"lng":140.216278,"lvl":7,"addr":"茨城県稲敷郡阿見町中郷2-1-7"},"7354":{"lat":36.345108,"lng":140.302979,"lvl":8,"addr":"茨城県笠間市八雲2-5-15"},"7384":{"lat":36.790241,"lng":140.740509,"lvl":7,"addr":"茨城県北茨城市磯原町磯原2-291"},"7422":{"lat":36.198742,"lng":139.723846,"lvl":8,"addr":"茨城県古河市旭町1-13-34"},"7423":{"lat":36.205173,"lng":139.808289,"lvl":5,"addr":"茨城県古河市諸川井耕地259-7"},"7457":{"lat":36.399849,"lng":140.502747,"lvl":7,"addr":"茨城県ひたちなか市市毛822-5"},"7458":{"lat":36.377281,"lng":140.438171,"lvl":7,"addr":"茨城県水戸市見和1丁目309-2"},"7459":{"lat":36.386971,"lng":140.52681,"lvl":8,"addr":"茨城県ひたちなか市春日町12-4"},"7460":{"lat":36.36586,"lng":140.471222,"lvl":3,"addr":"茨城県水戸市掘町1丁目336-2"},"7461":{"lat":36.344177,"lng":140.466568,"lvl":7,"addr":"茨城県水戸市元吉田町1030-12"},"7462":{"lat":36.36586,"lng":140.471222,"lvl":3,"addr":"茨城県水戸市318-1"},"7463":{"lat":36.790241,"lng":140.740509,"lvl":7,"addr":"茨城県北茨城市磯原町磯原2-291"},"7464":{"lat":36.390476,"lng":140.542633,"lvl":8,"addr":"茨城県ひたちなか市長堀町3-8-19"},"7466":{"lat":36.546341,"lng":140.47789,"lvl":5,"addr":"茨城県常陸太田市久米町123"},"7468":{"lat":36.256783,"lng":139.914932,"lvl":7,"addr":"茨城県筑西市関本上1412-6"},"7469":{"lat":35.911594,"lng":140.182266,"lvl":3,"addr":"茨城県龍ケ崎市て寺後3589"},"7470":{"lat":36.074085,"lng":140.190369,"lvl":8,"addr":"茨城県土浦市下高津2-6-27"},"7471":{"lat":36.038418,"lng":140.095901,"lvl":7,"addr":"茨城県つくば市上横場2573-128"},"7472":{"lat":36.080276,"lng":140.124237,"lvl":7,"addr":"茨城県つくば市竹園3-18-2"},"7474":{"lat":35.972935,"lng":140.135712,"lvl":7,"addr":"茨城県牛久市牛久町3318-1"},"7475":{"lat":36.011288,"lng":140.160416,"lvl":7,"addr":"茨城県牛久市ひたち野東1-19-1"},"7477":{"lat":36.188305,"lng":140.283966,"lvl":7,"addr":"茨城県石岡市石岡1-13-3"},"7478":{"lat":36.188305,"lng":140.283966,"lvl":7,"addr":"茨城県石岡市石岡1-13-3"},"7479":{"lat":36.123783,"lng":140.229553,"lvl":7,"addr":"茨城県かすみがうら市下稲吉2633-173"},"7480":{"lat":36.249352,"lng":140.307846,"lvl":7,"addr":"茨城県小美玉市江戸571-13"},"7481":{"lat":35.938679,"lng":140.545151,"lvl":7,"addr":"茨城県潮来市潮来295-1"},"7483":{"lat":35.897507,"lng":140.644073,"lvl":8,"addr":"茨城県神栖市大野原3丁目9番36"},"7691":{"lat":35.796669,"lng":140.777771,"lvl":7,"addr":"茨城県神栖市土合本町四丁目9809番地451"},"8316":{"lat":36.33638,"lng":140.459824,"lvl":7,"addr":"茨城県水戸市米沢町98-10"},"8365":{"lat":36.275959,"lng":140.093353,"lvl":7,"addr":"茨城県桜川市真壁町飯塚998"},"8375":{"lat":36.091084,"lng":140.100266,"lvl":7,"addr":"茨城県つくば市春日3-1-9"},"8389":{"lat":36.546341,"lng":140.47789,"lvl":5,"addr":"茨城県常陸太田市久米町123"},"8415":{"lat":36.051052,"lng":140.605865,"lvl":7,"addr":"茨城県鹿嶋市和789-2"},"8425":{"lat":36.100285,"lng":140.416122,"lvl":7,"addr":"茨城県行方市玉造甲659-2"},"8427":{"lat":36.365707,"lng":140.10437,"lvl":7,"addr":"茨城県桜川市御領1丁目23"},"8449":{"lat":36.19429,"lng":139.810913,"lvl":7,"addr":"茨城県古河市諸川1114-3"},"8450":{"lat":36.19429,"lng":139.810913,"lvl":7,"addr":"茨城県古河市諸川1114-3"},"8472":{"lat":35.960426,"lng":140.618484,"lvl":7,"addr":"茨城県鹿嶋市大船津3188-2"},"8508":{"lat":36.19479,"lng":139.74469,"lvl":7,"addr":"茨城県古河市東牛谷1484-1"},"8549":{"lat":36.136349,"lng":140.092072,"lvl":5,"addr":"茨城県つくば市大曽根字吾妻3653-1"},"8554":{"lat":36.305756,"lng":139.851334,"lvl":7,"addr":"茨城県結城市結城10742-15"},"8558":{"lat":35.888885,"lng":140.068756,"lvl":8,"addr":"茨城県取手市東2-6-40"},"8596":{"lat":36.027176,"lng":140.180649,"lvl":7,"addr":"茨城県稲敷郡阿見町本郷1-2-14"},"8623":{"lat":36.093224,"lng":140.10202,"lvl":7,"addr":"茨城県つくば市天久保2-1-18筑波大学附属病院桐の葉モ-ル"},"8631":{"lat":36.352688,"lng":140.483658,"lvl":7,"addr":"茨城県水戸市元吉田町2576-5"},"8638":{"lat":36.472881,"lng":140.566299,"lvl":3,"addr":"茨城県那珂郡東海村2083-6"},"8652":{"lat":36.201912,"lng":140.293121,"lvl":8,"addr":"茨城県石岡市東府中1-3"},"8672":{"lat":36.472614,"lng":140.557159,"lvl":7,"addr":"茨城県那珂郡東海村舟石川95"},"8692":{"lat":36.305264,"lng":139.877151,"lvl":3,"addr":"茨城県結城市下り松4丁目1番地4"},"8808":{"lat":36.322075,"lng":140.320251,"lvl":7,"addr":"茨城県笠間市旭町107-4"},"8818":{"lat":35.964466,"lng":140.155807,"lvl":7,"addr":"茨城県牛久市神谷5-1-1"},"8873":{"lat":36.248222,"lng":140.040207,"lvl":7,"addr":"茨城県筑西市海老ヶ島931-3"},"8923":{"lat":36.078804,"lng":140.139618,"lvl":7,"addr":"茨城県つくば市上ノ室867-1"},"8954":{"lat":36.057739,"lng":140.117355,"lvl":7,"addr":"茨城県つくば市松野木187-7"},"8964":{"lat":36.273865,"lng":140.105362,"lvl":7,"addr":"茨城県桜川市真壁町古城259-3"},"9003":{"lat":36.090298,"lng":140.106171,"lvl":7,"addr":"茨城県つくば市天久保1-1-6"},"9019":{"lat":36.784481,"lng":140.360825,"lvl":7,"addr":"茨城県久慈郡大子町池田1506"},"9021":{"lat":35.902859,"lng":140.621506,"lvl":7,"addr":"茨城県神栖市賀2108-157"},"9033":{"lat":36.296791,"lng":140.274414,"lvl":7,"addr":"茨城県笠間市下郷4105-4"},"9048":{"lat":36.393463,"lng":140.521423,"lvl":8,"addr":"茨城県ひたちなか市勝田本町4-16"},"9059":{"lat":36.083477,"lng":140.257141,"lvl":8,"addr":"茨城県土浦市おおつ野5-1-16"},"9065":{"lat":35.97776,"lng":140.142639,"lvl":7,"addr":"茨城県牛久市中央5-12-18-102"},"9069":{"lat":36.194763,"lng":139.709091,"lvl":8,"addr":"茨城県古河市本町1-1-15VAL古河駅ビル内"},"9085":{"lat":36.060356,"lng":140.051682,"lvl":5,"addr":"茨城県つくば市島名2610-3"},"9088":{"lat":36.191135,"lng":139.974091,"lvl":7,"addr":"茨城県下妻市大串452-2"},"9121":{"lat":36.086773,"lng":140.075989,"lvl":7,"addr":"茨城県つくば市研究学園4-4-11"},"9137":{"lat":36.113186,"lng":140.083893,"lvl":5,"addr":"茨城県つくば市要1069-5"},"9142":{"lat":36.549641,"lng":140.411072,"lvl":5,"addr":"茨城県常陸大宮市上町310"},"9145":{"lat":36.12011,"lng":139.806702,"lvl":7,"addr":"茨城県猿島郡境町上小橋536-1"},"9155":{"lat":36.229435,"lng":139.871307,"lvl":7,"addr":"茨城県結城市山川新宿168-6"},"9165":{"lat":35.928905,"lng":140.012085,"lvl":8,"addr":"茨城県取手市戸頭6-31-9ビルドタカ1階"},"9172":{"lat":36.434795,"lng":140.528351,"lvl":7,"addr":"茨城県ひたちなか市稲田331番地2"},"9176":{"lat":35.926647,"lng":140.041122,"lvl":6,"addr":"茨城県取手市ゆめみ野3-8-2"},